address_found,suburb,postcode,START_LATITUDE,START_LONGITUDE
"Mimmo La Bufala, 45a, South End Road, Vale of Health, Belsize Park, London Borough of Camden, London, Greater London, England, NW3 2QB, United Kingdom",Belsize Park,NW3 2QB,51.555373,-0.166287
"The Garden Gate, 14, South End Road, Belsize Park, London Borough of Camden, London, Greater London, England, NW3 2QE, United Kingdom",Belsize Park,NW3 2QE,51.554488,-0.165724
"9, Logan Place, Earl's Court, Royal Borough of Kensington and Chelsea, London, Greater London, England, W8 6DJ, United Kingdom",Earl's Court,W8 6DJ,51.495112,-0.196932
"Benson House, 4, Radnor Terrace, Kensington, Royal Borough of Kensington and Chelsea, London, Greater London, England, W14 8AZ, United Kingdom",Kensington,W14 8AZ,51.495397,-0.206241
"8, Waterloo Place, St. James's, Mayfair, London, Greater London, England, SW1Y 4BN, United Kingdom",Mayfair,SW1Y 4BN,51.507687,-0.132824
"22, Belsize Park Gardens, Swiss Cottage, Belsize Park, London Borough of Camden, London, Greater London, England, NW3 4LH, United Kingdom",Belsize Park,NW3 4LH,51.547963,-0.168158
"Haverstock Hill, Belsize Park, London Borough of Camden, London, Greater London, England, NW3 4RB, United Kingdom",Belsize Park,NW3 4RB,51.551847,-0.166985
"Cambridge Heath Road, Globe Town, Bethnal Green, London Borough of Tower Hamlets, London, Greater London, England, E2 0EL, United Kingdom",Bethnal Green,E2 0EL,51.527063,-0.055682
"Central Line Service Control Centre, Wood Lane, Shepherd's Bush, London Borough of Hammersmith and Fulham, London, Greater London, England, W12 7JY, United Kingdom",Shepherd's Bush,W12 7JY,51.506442,-0.224455
"London Clinic, 20, Devonshire Place, East Marylebone, Marylebone, Camden Town, London, Greater London, England, W1G 6BW, United Kingdom",Marylebone,W1G 6BW,51.52284,-0.151056
"Lord Kensington House, 5, Radnor Terrace, Kensington, Royal Borough of Kensington and Chelsea, London, Greater London, England, W14 8AZ, United Kingdom",Kensington,W14 8AZ,51.49576,-0.205988
"Gordon Cottage, Earsby Street, West Kensington, London Borough of Hammersmith and Fulham, London, Greater London, England, W14 8XH, United Kingdom",West Kensington,W14 8XH,51.495281,-0.208738
"Hammersmith Road, West Kensington, London Borough of Hammersmith and Fulham, London, Greater London, England, W14 8XJ, United Kingdom",West Kensington,W14 8XJ,51.495917,-0.208488
"1, Ravenscourt Place, Hammersmith, London Borough of Hammersmith and Fulham, London, Greater London, England, W6 0UN, United Kingdom",Hammersmith,W6 0UN,51.493978,-0.236481
"Lawn Road, Maitland Park, Belsize Park, London Borough of Camden, London, Greater London, England, NW3 2QU, United Kingdom",Belsize Park,NW3 2QU,51.553255,-0.161363
"2, Crawford Place, Marylebone, London, Greater London, England, W1H 5NA, United Kingdom",Marylebone,W1H 5NA,51.517766,-0.166407
"The Magdala, 2a, South Hill Park, Belsize Park, London Borough of Camden, London, Greater London, England, NW3 2SB, United Kingdom",Belsize Park,NW3 2SB,51.555332,-0.166019
"Howland Street, Fitzrovia, London Borough of Camden, London, Greater London, England, W1T 4TN, United Kingdom",Fitzrovia,W1T 4TN,51.522104,-0.136123
"The Magdala, 2a, South Hill Park, Belsize Park, London Borough of Camden, London, Greater London, England, NW3 2SB, United Kingdom",Belsize Park,NW3 2SB,51.555256,-0.166204
"Covent Garden Community Centre, 42, Earlham Street, Seven Dials, Bloomsbury, London Borough of Camden, London, Greater London, England, WC2H 9LA, United Kingdom",Bloomsbury,WC2H 9LA,51.513889,-0.126053
"72-74, Kensington High Street, Kensington, Royal Borough of Kensington and Chelsea, London, Greater London, England, W8 5SE, United Kingdom",Kensington,W8 5SE,51.5021,-0.190746
"Haverstock Hill, Belsize Park, London Borough of Camden, London, Greater London, England, NW3 4QT, United Kingdom",Belsize Park,NW3 4QT,51.550015,-0.16429
"Royal Free Hospital, Pond Street, Belsize Park, London Borough of Camden, London, Greater London, England, NW3 2QG, United Kingdom",Belsize Park,NW3 2QG,51.553858,-0.1662
"Bessborough Gardens, Millbank, London, Greater London, England, SW1V 2JQ, United Kingdom",Millbank,SW1V 2JQ,51.488665,-0.129674
"Boyce Street, South Bank, Waterloo, London Borough of Lambeth, London, Greater London, England, SE1 8SQ, United Kingdom",Waterloo,SE1 8SQ,51.504041,-0.114062
"Starbucks, 5-7, South End Road, Belsize Park, London Borough of Camden, London, Greater London, England, NW3 2PT, United Kingdom",Belsize Park,NW3 2PT,51.554249,-0.165581
"One Lyric Square, 1, Lyric Square, Hammersmith, London Borough of Hammersmith and Fulham, London, Greater London, England, W6 0ED, United Kingdom",Hammersmith,W6 0ED,51.492915000000004,-0.226067
"Royal Free Hospital, Pond Street, Belsize Park, London Borough of Camden, London, Greater London, England, NW3 2QG, United Kingdom",Belsize Park,NW3 2QG,51.553663,-0.167205
"Wood Lane, Shepherd's Bush, London Borough of Hammersmith and Fulham, London, Greater London, England, W12 7BF, United Kingdom",Shepherd's Bush,W12 7BF,51.506297000000004,-0.224464
"Hammersmith Road, West Kensington, London Borough of Hammersmith and Fulham, London, Greater London, England, W14 8XJ, United Kingdom",West Kensington,W14 8XJ,51.496007,-0.20781
"Hammersmith Road, West Kensington, London Borough of Hammersmith and Fulham, London, Greater London, England, W14 8XJ, United Kingdom",West Kensington,W14 8XJ,51.495997,-0.208747
"Kensington High Street, Kensington, Royal Borough of Kensington and Chelsea, London, Greater London, England, W14 8NL, United Kingdom",Kensington,W14 8NL,51.495746,-0.206246
"Kensington High Street, Kensington, Royal Borough of Kensington and Chelsea, London, Greater London, England, W14 8NL, United Kingdom",Kensington,W14 8NL,51.495835,-0.206335
"Huntley Street, Fitzrovia, London Borough of Camden, London, Greater London, England, WC1E 7HE, United Kingdom",Fitzrovia,WC1E 7HE,51.522329,-0.134232
"Royal Free Hospital, Pond Street, Belsize Park, London Borough of Camden, London, Greater London, England, NW3 2QG, United Kingdom",Belsize Park,NW3 2QG,51.553937,-0.165871
"Fairfax Place, Kensington, Royal Borough of Kensington and Chelsea, London, Greater London, England, W14 8HW, United Kingdom",Kensington,W14 8HW,51.497713,-0.208485
"VauxWall East Climbing Centre, 1, Lollard Street, Ethelred Estate, Lambeth, London Borough of Lambeth, London, Greater London, England, SE11 6BD, United Kingdom",Lambeth,SE11 6BD,51.49225,-0.113654
"11a, Charing Cross Road, Seven Dials, Bloomsbury, London, Greater London, England, WC2H 0EP, United Kingdom",Bloomsbury,WC2H 0EP,51.509912,-0.128341
"VauxWall East Climbing Centre, 1, Lollard Street, Ethelred Estate, Lambeth, London Borough of Lambeth, London, Greater London, England, SE11 6BD, United Kingdom",Lambeth,SE11 6BD,51.492194,-0.113557
"The Hand and Flower, 1, Hammersmith Road, West Kensington, London Borough of Hammersmith and Fulham, London, Greater London, England, W14 8XJ, United Kingdom",West Kensington,W14 8XJ,51.496146,-0.208162
"Wolfe House, 389, Kensington High Street, Kensington, Royal Borough of Kensington and Chelsea, London, Greater London, England, W14 8NL, United Kingdom",Kensington,W14 8NL,51.496171,-0.207251
"The Magdala, 2a, South Hill Park, Belsize Park, London Borough of Camden, London, Greater London, England, NW3 2SB, United Kingdom",Belsize Park,NW3 2SB,51.55536,-0.166064
"58, Holland Road, Kensington, Royal Borough of Kensington and Chelsea, London, Greater London, England, W14 8BA, United Kingdom",Kensington,W14 8BA,51.498442,-0.208333
"Nevern Square Garden, Nevern Square, Earl's Court, Royal Borough of Kensington and Chelsea, London, Greater London, England, SW5 9PF, United Kingdom",Earl's Court,SW5 9PF,51.491822,-0.196931
"9, Addison Bridge Place, West Kensington, London Borough of Hammersmith and Fulham, London, Greater London, England, W14 8XW, United Kingdom",West Kensington,W14 8XW,51.495445,-0.20695
"284, Elgin Avenue, Maida Vale, London, Greater London, England, W9 1NJ, United Kingdom",Maida Vale,W9 1NJ,51.529769,-0.186184
"VauxWall East Climbing Centre, 1, Lollard Street, Ethelred Estate, Lambeth, London Borough of Lambeth, London, Greater London, England, SE11 6BD, United Kingdom",Lambeth,SE11 6BD,51.492314,-0.113729
"The Magdala, 2a, South Hill Park, Belsize Park, London Borough of Camden, London, Greater London, England, NW3 2SB, United Kingdom",Belsize Park,NW3 2SB,51.555316,-0.166012
"Lyndhurst Road, Belsize Park, London Borough of Camden, London, Greater London, England, NW3 1PH, United Kingdom",Belsize Park,NW3 1PH,51.553143,-0.169456
"Welby, 37, Belsize Avenue, Swiss Cottage, Belsize Park, London Borough of Camden, London, Greater London, England, NW3 4AE, United Kingdom",Belsize Park,NW3 4AE,51.549965,-0.168736
"Coe House, 4, Warwick Road, Kensington, Royal Borough of Kensington and Chelsea, London, Greater London, England, W14 8QB, United Kingdom",Kensington,W14 8QB,51.494963,-0.203238
"69, Wightman Road, Harringay Ladder, Harringay, London Borough of Haringey, London, Greater London, England, N4 1DL, United Kingdom",Harringay,N4 1DL,51.579636,-0.105027
"Russell Road, Kensington, Royal Borough of Kensington and Chelsea, London, Greater London, England, W14 8HU, United Kingdom",Kensington,W14 8HU,51.496398,-0.207131
"39,41,43,45,47,49, Lyndhurst Gardens, Swiss Cottage, Belsize Park, London Borough of Camden, London, Greater London, England, NW3 5NR, United Kingdom",Belsize Park,NW3 5NR,51.551259,-0.171138
"Durrels House, Warwick Gardens, Kensington, Royal Borough of Kensington and Chelsea, London, Greater London, England, W14 8PP, United Kingdom",Kensington,W14 8PP,51.495863,-0.20326
"Peabody Avenue, Pimlico, London, Greater London, England, SW1V 4AY, United Kingdom",Pimlico,SW1V 4AY,51.486905,-0.146052
"The Magdala, 2a, South Hill Park, Belsize Park, London Borough of Camden, London, Greater London, England, NW3 2SB, United Kingdom",Belsize Park,NW3 2SB,51.555339,-0.165989
"Starbucks, 5-7, South End Road, Belsize Park, London Borough of Camden, London, Greater London, England, NW3 2PT, United Kingdom",Belsize Park,NW3 2PT,51.554246,-0.165702
"Monthope Road, Spitalfields, Whitechapel, London Borough of Tower Hamlets, London, Greater London, England, E1 5LS, United Kingdom",Whitechapel,E1 5LS,51.518055,-0.069548
"Kensington Road, South Kensington, Royal Borough of Kensington and Chelsea, London, Greater London, England, W8 5AU, United Kingdom",South Kensington,W8 5AU,51.502035,-0.185476
"15, Ravenscourt Avenue, Hammersmith, London Borough of Hammersmith and Fulham, London, Greater London, England, W6 0SL, United Kingdom",Hammersmith,W6 0SL,51.494267,-0.237412
"18, Holland Road, Kensington, Royal Borough of Kensington and Chelsea, London, Greater London, England, W14 8BA, United Kingdom",Kensington,W14 8BA,51.497567,-0.207032
"Ibberton House, 70, Russell Road, Kensington, Royal Borough of Kensington and Chelsea, London, Greater London, England, W14 8HU, United Kingdom",Kensington,W14 8HU,51.498066,-0.209486
"Holland Road, Notting Hill, Royal Borough of Kensington and Chelsea, London, Greater London, England, W11 4XB, United Kingdom",Notting Hill,W11 4XB,51.504258,-0.215965
"76, Randolph Avenue, Maida Vale, London, Greater London, England, W9 1BG, United Kingdom",Maida Vale,W9 1BG,51.526515,-0.181834
"Benson House, 4, Radnor Terrace, Kensington, Royal Borough of Kensington and Chelsea, London, Greater London, England, W14 8AZ, United Kingdom",Kensington,W14 8AZ,51.495546,-0.206304
"Addison Crescent, Kensington, Royal Borough of Kensington and Chelsea, London, Greater London, England, W14 8HP, United Kingdom",Kensington,W14 8HP,51.499785,-0.209843
"Waterstones, 82, Gower Street, Bloomsbury, London Borough of Camden, London, Greater London, England, WC1E 6EG, United Kingdom",Bloomsbury,WC1E 6EG,51.522509,-0.131978
"Monarch House, 239, Kensington High Street, Kensington, Royal Borough of Kensington and Chelsea, London, Greater London, England, W8 6SN, United Kingdom",Kensington,W8 6SN,51.499026,-0.198288
"The Magdala, 2a, South Hill Park, Belsize Park, London Borough of Camden, London, Greater London, England, NW3 2SB, United Kingdom",Belsize Park,NW3 2SB,51.555257,-0.166225
"VauxWall East Climbing Centre, 1, Lollard Street, Ethelred Estate, Lambeth, London Borough of Lambeth, London, Greater London, England, SE11 6BD, United Kingdom",Lambeth,SE11 6BD,51.492201,-0.11358
"RavensWall Climbing Centre, Ravenscourt Road, Hammersmith, London Borough of Hammersmith and Fulham, London, Greater London, England, W6 0UQ, United Kingdom",Hammersmith,W6 0UQ,51.494252,-0.236339
"The Magdala, 2a, South Hill Park, Belsize Park, London Borough of Camden, London, Greater London, England, NW3 2SB, United Kingdom",Belsize Park,NW3 2SB,51.555295,-0.166222
"48, Connaught Street, Paddington, London, Greater London, England, W2 2AA, United Kingdom",Paddington,W2 2AA,51.514245,-0.167612
"98, Ladbroke Grove, Lancaster West Estate, North Kensington, Royal Borough of Kensington and Chelsea, London, Greater London, England, W11 1PY, United Kingdom",North Kensington,W11 1PY,51.516269,-0.209125
"Chiringuito, Cambridge Heath Road, Globe Town, Bethnal Green, London Borough of Tower Hamlets, London, Greater London, England, E2 9PA, United Kingdom",Bethnal Green,E2 9PA,51.527673,-0.055318
"Giacobazzi's, 150, Fleet Road, Maitland Park, Belsize Park, London Borough of Camden, London, Greater London, England, NW3 2QX, United Kingdom",Belsize Park,NW3 2QX,51.55379,-0.163497
"Royal Mail, Kensington High Street, Kensington, Royal Borough of Kensington and Chelsea, London, Greater London, England, W14 8NW, United Kingdom",Kensington,W14 8NW,51.496845,-0.205125
"Hilton London Olympia, 380, Kensington High Street, Kensington, Royal Borough of Kensington and Chelsea, London, Greater London, England, W14 8NL, United Kingdom",Kensington,W14 8NL,51.496579,-0.206074
"13, Hammersmith Road, West Kensington, London Borough of Hammersmith and Fulham, London, Greater London, England, W14 8XJ, United Kingdom",West Kensington,W14 8XJ,51.49594,-0.20872
"Benson House, 4, Radnor Terrace, Kensington, Royal Borough of Kensington and Chelsea, London, Greater London, England, W14 8AZ, United Kingdom",Kensington,W14 8AZ,51.495461,-0.206085
"Ibberton House, 70, Russell Road, Kensington, Royal Borough of Kensington and Chelsea, London, Greater London, England, W14 8HU, United Kingdom",Kensington,W14 8HU,51.498079,-0.209453
"The Magdala, 2a, South Hill Park, Belsize Park, London Borough of Camden, London, Greater London, England, NW3 2SB, United Kingdom",Belsize Park,NW3 2SB,51.555326,-0.165991
"Heron Place, 9, Thayer Street, Marylebone, London, Greater London, England, W1U 2QY, United Kingdom",Marylebone,W1U 2QY,51.51763,-0.151505
"Belsize Park, Haverstock Hill, Belsize Park, London Borough of Camden, London, Greater London, England, NW3 4QL, United Kingdom",Belsize Park,NW3 4QL,51.550157,-0.16431
"Warwick Road, Kensington, Royal Borough of Kensington and Chelsea, London, Greater London, England, W14 8QZ, United Kingdom",Kensington,W14 8QZ,51.496666,-0.205018
"John Street, Ethelred Estate, Lambeth, London Borough of Lambeth, London, Greater London, England, SE11 6UD, United Kingdom",Lambeth,SE11 6UD,51.492127,-0.113443
"Kensington Mansions, 67-70, Warwick Road, Earl's Court, Royal Borough of Kensington and Chelsea, London, Greater London, England, SW5 9TJ, United Kingdom",Earl's Court,SW5 9TJ,51.49061,-0.196488
"Clarendon Street, Pimlico, London, Greater London, England, SW1V 4RD, United Kingdom",Pimlico,SW1V 4RD,51.488667,-0.145395
"J H Kenyon, 279, Edwardes Square, Kensington, Royal Borough of Kensington and Chelsea, London, Greater London, England, W8 6NN, United Kingdom",Kensington,W8 6NN,51.498345,-0.200166
"The Magdala, 2a, South Hill Park, Belsize Park, London Borough of Camden, London, Greater London, England, NW3 2SB, United Kingdom",Belsize Park,NW3 2SB,51.555352,-0.165968
"Caroline House, Bayswater Road, Bayswater, London, Greater London, England, W2 4RJ, United Kingdom",Bayswater,W2 4RJ,51.510244,-0.188118
"Box Noodle, 450, Mile End Road, Globe Town, Mile End, London Borough of Tower Hamlets, London, Greater London, England, E1 4GG, United Kingdom",Mile End,E1 4GG,51.523687,-0.038015
"Charles House, 385, Kensington High Street, Kensington, Royal Borough of Kensington and Chelsea, London, Greater London, England, W14 8QA, United Kingdom",Kensington,W14 8QA,51.496299,-0.20664
"Russell Road, Kensington, Royal Borough of Kensington and Chelsea, London, Greater London, England, W14 8HU, United Kingdom",Kensington,W14 8HU,51.496305,-0.207179
"Lord Kensington House, 5, Radnor Terrace, Kensington, Royal Borough of Kensington and Chelsea, London, Greater London, England, W14 8AZ, United Kingdom",Kensington,W14 8AZ,51.49567,-0.206009
"The Magdala, 2a, South Hill Park, Belsize Park, London Borough of Camden, London, Greater London, England, NW3 2SB, United Kingdom",Belsize Park,NW3 2SB,51.555337,-0.166019
"Hunters Lodge, 5, Belsize Lane, Belsize Village, Belsize Park, London Borough of Camden, London, Greater London, England, NW3 5AD, United Kingdom",Belsize Park,NW3 5AD,51.552094,-0.16917
"No 1 Coffee London, Ravenscourt Place, Hammersmith, London Borough of Hammersmith and Fulham, London, Greater London, England, W6 0UN, United Kingdom",Hammersmith,W6 0UN,51.49399,-0.236478
"The Magdala, 2a, South Hill Park, Belsize Park, London Borough of Camden, London, Greater London, England, NW3 2SB, United Kingdom",Belsize Park,NW3 2SB,51.55532,-0.166089
"142-146, Farringdon Road, Pentonville, Clerkenwell, London Borough of Islington, London, Greater London, England, EC1R 3AP, United Kingdom",Clerkenwell,EC1R 3AP,51.525888,-0.111963
"Hestia House, City Walk, Bermondsey Village, The Borough, London Borough of Southwark, London, Greater London, England, SE1 4PP, United Kingdom",The Borough,SE1 4PP,51.499136,-0.083255
"John Street, Ethelred Estate, Lambeth, London Borough of Lambeth, London, Greater London, England, SE11 6UD, United Kingdom",Lambeth,SE11 6UD,51.491756,-0.114075
"Devonshire Club, 50, St. James's Street, St. James's, Mayfair, London, Greater London, England, SW1A 1JT, United Kingdom",Mayfair,SW1A 1JT,51.507634,-0.140412
"Trinity House, 377, Kensington High Street, Kensington, Royal Borough of Kensington and Chelsea, London, Greater London, England, W14 8QA, United Kingdom",Kensington,W14 8QA,51.49623,-0.205517
"Rosslyn Heights, 2, Belsize Lane, Belsize Village, Belsize Park, London Borough of Camden, London, Greater London, England, NW3 5AD, United Kingdom",Belsize Park,NW3 5AD,51.552312,-0.16862
"The Magdala, 2a, South Hill Park, Belsize Park, London Borough of Camden, London, Greater London, England, NW3 2SB, United Kingdom",Belsize Park,NW3 2SB,51.555371,-0.16608
"The Warwick Arms, 160, Warwick Road, Kensington, Royal Borough of Kensington and Chelsea, London, Greater London, England, W14 8QB, United Kingdom",Kensington,W14 8QB,51.49536,-0.203429
"Kensington High Street, Kensington, Royal Borough of Kensington and Chelsea, London, Greater London, England, W14 8NS, United Kingdom",Kensington,W14 8NS,51.497009,-0.204867
"Kenton Court, 356, Kensington High Street, Kensington, Royal Borough of Kensington and Chelsea, London, Greater London, England, W14 8NW, United Kingdom",Kensington,W14 8NW,51.49695,-0.205034
"Royal Free Hospital, Pond Street, Belsize Park, London Borough of Camden, London, Greater London, England, NW3 2QG, United Kingdom",Belsize Park,NW3 2QG,51.55392,-0.165513
"2-8a, Rutland Gate, Knightsbridge, London, Greater London, England, SW7 1AY, United Kingdom",Knightsbridge,SW7 1AY,51.501686,-0.168406
"96, Masbro' Road, Brook Green, London Borough of Hammersmith and Fulham, London, Greater London, England, W14 0LR, United Kingdom",Brook Green,W14 0LR,51.50001,-0.215303
"Ravenscourt Road, Hammersmith, London Borough of Hammersmith and Fulham, London, Greater London, England, W6 0UH, United Kingdom",Hammersmith,W6 0UH,51.494034,-0.236477
"Trinity House, 377, Kensington High Street, Kensington, Royal Borough of Kensington and Chelsea, London, Greater London, England, W14 8QA, United Kingdom",Kensington,W14 8QA,51.496198,-0.205961
"6, Addison Bridge Place, West Kensington, London Borough of Hammersmith and Fulham, London, Greater London, England, W14 8XW, United Kingdom",West Kensington,W14 8XW,51.49557,-0.207187
"Brook Green, London Borough of Hammersmith and Fulham, London, Greater London, England, W6 7EF, United Kingdom",Brook Green,W6 7EF,51.494372,-0.215908
"375 Kensington High Street, Kensington, Royal Borough of Kensington and Chelsea, London, Greater London, England, W14 8QA, United Kingdom",Kensington,W14 8QA,51.495691,-0.206218
"Benson House, 4, Radnor Terrace, Kensington, Royal Borough of Kensington and Chelsea, London, Greater London, England, W14 8AZ, United Kingdom",Kensington,W14 8AZ,51.495633,-0.206774
"Devonshire Club, 50, St. James's Street, St. James's, Mayfair, London, Greater London, England, SW1A 1JT, United Kingdom",Mayfair,SW1A 1JT,51.507597,-0.14044
"Jigsaw, 65, Kensington High Street, Kensington, Royal Borough of Kensington and Chelsea, London, Greater London, England, W8 5SE, United Kingdom",Kensington,W8 5SE,51.501843,-0.191189
"29, St George Street, East Marylebone, Mayfair, City of Westminster, Greater London, England, W1S 1FS, United Kingdom",Mayfair,W1S 1FS,51.512757,-0.142805
"Hammersmith Road, West Kensington, London Borough of Hammersmith and Fulham, London, Greater London, England, W14 0QH, United Kingdom",West Kensington,W14 0QH,51.494765,-0.212315
"Kensington High Street, Kensington, Royal Borough of Kensington and Chelsea, London, Greater London, England, W14 8NL, United Kingdom",Kensington,W14 8NL,51.495803,-0.206275
"64, Millbank, London, Greater London, England, SW1P 4RP, United Kingdom",Millbank,SW1P 4RP,51.489018,-0.129033
"48, Hormead Road, Kensal Town, Maida Hill, London, Greater London, England, W9 3NG, United Kingdom",Kensal Town,W9 3NG,51.523865,-0.203785
"Andrew Martin, Chenies Street, Saint Giles, Bloomsbury, London Borough of Camden, London, Greater London, England, WC1E 7EU, United Kingdom",Bloomsbury,WC1E 7EU,51.520432,-0.134052
"Lord Kensington House, 5, Radnor Terrace, Kensington, Royal Borough of Kensington and Chelsea, London, Greater London, England, W14 8AZ, United Kingdom",Kensington,W14 8AZ,51.495581,-0.205807
"Sumatra Road, West Hampstead, London Borough of Camden, London, Greater London, England, NW6 1PL, United Kingdom",West Hampstead,NW6 1PL,51.5489,-0.192704
"Wolfe House, 389, Kensington High Street, Kensington, Royal Borough of Kensington and Chelsea, London, Greater London, England, W14 8NL, United Kingdom",Kensington,W14 8NL,51.496216,-0.207
"Wolfe House, 389, Kensington High Street, Kensington, Royal Borough of Kensington and Chelsea, London, Greater London, England, W14 8NL, United Kingdom",Kensington,W14 8NL,51.496294,-0.207005
"27, St Mary Abbots Terrace, Kensington, Royal Borough of Kensington and Chelsea, London, Greater London, England, W14 8NX, United Kingdom",Kensington,W14 8NX,51.497944,-0.202995
"Russell Road, Kensington, Royal Borough of Kensington and Chelsea, London, Greater London, England, W14 8HU, United Kingdom",Kensington,W14 8HU,51.496559,-0.207436
"Millbank, London, Greater London, England, SW1P 4RP, United Kingdom",Millbank,SW1P 4RP,51.488772,-0.12915
"West Side Common, Wimbledon Village, London Borough of Merton, London, Greater London, England, SW19 4UG, United Kingdom",NA,SW19 4UG,51.424228,-0.22793
"Fairfax Place, Kensington, Royal Borough of Kensington and Chelsea, London, Greater London, England, W14 8HW, United Kingdom",Kensington,W14 8HW,51.497679,-0.208514
"Haverstock Hill, Belsize Park, London Borough of Camden, London, Greater London, England, NW3 4QT, United Kingdom",Belsize Park,NW3 4QT,51.550279,-0.164387
"Hammersmith Road, West Kensington, London Borough of Hammersmith and Fulham, London, Greater London, England, W14 8XJ, United Kingdom",West Kensington,W14 8XJ,51.496115,-0.208058
"375 Kensington High Street, Kensington, Royal Borough of Kensington and Chelsea, London, Greater London, England, W14 8QA, United Kingdom",Kensington,W14 8QA,51.495776,-0.206377
"South End Green, Belsize Park, London Borough of Camden, London, Greater London, England, NW3 2QE, United Kingdom",Belsize Park,NW3 2QE,51.554508,-0.165295
"Thornhaugh Street, Bloomsbury, London Borough of Camden, London, Greater London, England, WC1H 0XG, United Kingdom",Bloomsbury,WC1H 0XG,51.521987,-0.127945
"8, Dennington Park Road, West Hampstead, London Borough of Camden, London, Greater London, England, NW6 1BB, United Kingdom",West Hampstead,NW6 1BB,51.550048,-0.191564
"The Magdala, 2a, South Hill Park, Belsize Park, London Borough of Camden, London, Greater London, England, NW3 2SB, United Kingdom",Belsize Park,NW3 2SB,51.555345,-0.166041
"19, Warwick Gardens, Kensington, Royal Borough of Kensington and Chelsea, London, Greater London, England, W14 8PR, United Kingdom",Kensington,W14 8PR,51.496423,-0.203529
"Greenwood, 170, Victoria Street, Victoria, London, Greater London, England, SW1E 5LB, United Kingdom",Victoria,SW1E 5LB,51.496781,-0.14388599999999999
"375 Kensington High Street, Kensington, Royal Borough of Kensington and Chelsea, London, Greater London, England, W14 8QA, United Kingdom",Kensington,W14 8QA,51.495789,-0.206341
"Grenada House, Limehouse Causeway, Limehouse, London Borough of Tower Hamlets, London, Greater London, England, E14 8AD, United Kingdom",Limehouse,E14 8AD,51.509323,-0.027097
"1-2, Queen's Gate, Brompton, Royal Borough of Kensington and Chelsea, London, Greater London, England, SW7 5QL, United Kingdom",Brompton,SW7 5QL,51.501027,-0.180215
"Hammersmith Road, West Kensington, London Borough of Hammersmith and Fulham, London, Greater London, England, W14 8XJ, United Kingdom",West Kensington,W14 8XJ,51.496132,-0.207847
"The Magdala, 2a, South Hill Park, Belsize Park, London Borough of Camden, London, Greater London, England, NW3 2SB, United Kingdom",Belsize Park,NW3 2SB,51.55534,-0.166015
"Eco, 2, Holland Road, Kensington, Royal Borough of Kensington and Chelsea, London, Greater London, England, W14 8BA, United Kingdom",Kensington,W14 8BA,51.496736,-0.206087
"127, Kensington High Street, Kensington, Royal Borough of Kensington and Chelsea, London, Greater London, England, W8 5SF, United Kingdom",Kensington,W8 5SF,51.500822,-0.19323
"Kensington High Street, Kensington, Royal Borough of Kensington and Chelsea, London, Greater London, England, W14 8NL, United Kingdom",Kensington,W14 8NL,51.495794,-0.206096
"The Roebuck, 15, Pond Street, Belsize Park, London Borough of Camden, London, Greater London, England, NW3 2PN, United Kingdom",Belsize Park,NW3 2PN,51.55374,-0.167464
"22, Russell Road, Kensington, Royal Borough of Kensington and Chelsea, London, Greater London, England, W14 8HU, United Kingdom",Kensington,W14 8HU,51.49796,-0.20907800000000001
"The Magdala, 2a, South Hill Park, Belsize Park, London Borough of Camden, London, Greater London, England, NW3 2SB, United Kingdom",Belsize Park,NW3 2SB,51.555328,-0.166079
"375 Kensington High Street, Kensington, Royal Borough of Kensington and Chelsea, London, Greater London, England, W14 8QA, United Kingdom",Kensington,W14 8QA,51.495623,-0.206226
"Trinity House, 377, Kensington High Street, Kensington, Royal Borough of Kensington and Chelsea, London, Greater London, England, W14 8QA, United Kingdom",Kensington,W14 8QA,51.496261,-0.206107
"Blacks, 248, Tottenham Court Road, Saint Giles, Bloomsbury, London Borough of Camden, London, Greater London, England, W1T 7QZ, United Kingdom",Bloomsbury,W1T 7QZ,51.517958,-0.131591
"375 Kensington High Street, Kensington, Royal Borough of Kensington and Chelsea, London, Greater London, England, W14 8QA, United Kingdom",Kensington,W14 8QA,51.495837,-0.206447
"Belsize Park, Haverstock Hill, Belsize Park, London Borough of Camden, London, Greater London, England, NW3 4QL, United Kingdom",Belsize Park,NW3 4QL,51.550189,-0.164323
"Kahn Automobiles, 377, Kensington High Street, Kensington, Royal Borough of Kensington and Chelsea, London, Greater London, England, W14 8QA, United Kingdom",Kensington,W14 8QA,51.496609,-0.206018
"Nevern Mansions, 44, Warwick Road, Earl's Court, Royal Borough of Kensington and Chelsea, London, Greater London, England, SW5 9TJ, United Kingdom",Earl's Court,SW5 9TJ,51.491364,-0.197873
"Kensington Primary Academy, 205, Warwick Road, Kensington, Royal Borough of Kensington and Chelsea, London, Greater London, England, W14 8PU, United Kingdom",Kensington,W14 8PU,51.496372,-0.204858
"37-43, Eaton Place, Belgravia, London, Greater London, England, SW1X 8BY, United Kingdom",Belgravia,SW1X 8BY,51.4969,-0.153072
"Rowland Hill Street, Belsize Park, London Borough of Camden, London, Greater London, England, NW3 2AQ, United Kingdom",Belsize Park,NW3 2AQ,51.552486,-0.167389
"John Lewis, 300, Oxford Street, East Marylebone, Mayfair, London, Greater London, England, W1C 1DX, United Kingdom",Mayfair,W1C 1DX,51.515671,-0.144763
"The Magdala, 2a, South Hill Park, Belsize Park, London Borough of Camden, London, Greater London, England, NW3 2SB, United Kingdom",Belsize Park,NW3 2SB,51.555355,-0.165992
"Belsize Park, Haverstock Hill, Belsize Park, London Borough of Camden, London, Greater London, England, NW3 4QL, United Kingdom",Belsize Park,NW3 4QL,51.550111,-0.164339
"The Magdala, 2a, South Hill Park, Belsize Park, London Borough of Camden, London, Greater London, England, NW3 2SB, United Kingdom",Belsize Park,NW3 2SB,51.555306,-0.166029
"Lloyds Bank, 112-114, Kensington High Street, Kensington, Royal Borough of Kensington and Chelsea, London, Greater London, England, W8 4SN, United Kingdom",Kensington,W8 4SN,51.500985,-0.193255
"The Magdala, 2a, South Hill Park, Belsize Park, London Borough of Camden, London, Greater London, England, NW3 2SB, United Kingdom",Belsize Park,NW3 2SB,51.555342,-0.166094
"Crediton Hill, West Hampstead, London Borough of Camden, London, Greater London, England, NW6 1HS, United Kingdom",West Hampstead,NW6 1HS,51.552485,-0.189457
"DWW1/144, Boleyn Road, Dalston, London Borough of Hackney, London, Greater London, England, N16 8JP, United Kingdom",Dalston,N16 8JP,51.548136,-0.07659
"Lord Kensington House, 5, Radnor Terrace, Kensington, Royal Borough of Kensington and Chelsea, London, Greater London, England, W14 8AZ, United Kingdom",Kensington,W14 8AZ,51.49567,-0.206018
"Belushi's, 15, Shepherds Bush Green, Shepherd's Bush, London Borough of Hammersmith and Fulham, London, Greater London, England, W12 8PH, United Kingdom",Shepherd's Bush,W12 8PH,51.504197,-0.217721
"Campden Hill Road, Kensington, Royal Borough of Kensington and Chelsea, London, Greater London, England, W8 7RU, United Kingdom",Kensington,W8 7RU,51.501552,-0.194851
"Benson House, 4, Radnor Terrace, Kensington, Royal Borough of Kensington and Chelsea, London, Greater London, England, W14 8AZ, United Kingdom",Kensington,W14 8AZ,51.495513,-0.206496
"Bridgeman House, 1, Radnor Terrace, Kensington, Royal Borough of Kensington and Chelsea, London, Greater London, England, W14 8AZ, United Kingdom",Kensington,W14 8AZ,51.495858,-0.204803
"Grosvenor Road, Millbank, London, Greater London, England, SW1V 3JL, United Kingdom",Millbank,SW1V 3JL,51.48859,-0.129428
"Ravenscourt Road, Hammersmith, London Borough of Hammersmith and Fulham, London, Greater London, England, W6 0UH, United Kingdom",Hammersmith,W6 0UH,51.494072,-0.236476
"19, Newman Street, Soho, Fitzrovia, Camden Town, London, Greater London, England, W1T 1PF, United Kingdom",Fitzrovia,W1T 1PF,51.517437,-0.135369
"St Lawrence Mansions, 6-8, Priory Park Road, Queen's Park, London Borough of Brent, London, Greater London, England, NW6 7UJ, United Kingdom",Queen's Park,NW6 7UJ,51.540539,-0.196366
"Sondheim Theatre, 51, Shaftesbury Avenue, Saint Giles, Bloomsbury, London, Greater London, England, W1D 6BA, United Kingdom",Bloomsbury,W1D 6BA,51.511806,-0.132452
"Causton Street, Millbank, London, Greater London, England, SW1P 4AT, United Kingdom",Millbank,SW1P 4AT,51.490874,-0.131303
"Ibberton House, 70, Russell Road, Kensington, Royal Borough of Kensington and Chelsea, London, Greater London, England, W14 8HU, United Kingdom",Kensington,W14 8HU,51.498142,-0.209407
"The Magdala, 2a, South Hill Park, Belsize Park, London Borough of Camden, London, Greater London, England, NW3 2SB, United Kingdom",Belsize Park,NW3 2SB,51.55535,-0.166043
"The Magdala, 2a, South Hill Park, Belsize Park, London Borough of Camden, London, Greater London, England, NW3 2SB, United Kingdom",Belsize Park,NW3 2SB,51.555399,-0.165999
"The Hand and Flower, 1, Hammersmith Road, West Kensington, London Borough of Hammersmith and Fulham, London, Greater London, England, W14 8XJ, United Kingdom",West Kensington,W14 8XJ,51.495992,-0.208115
"Holland Walk, Kensington, Royal Borough of Kensington and Chelsea, London, Greater London, England, W8 7QG, United Kingdom",Kensington,W8 7QG,51.499249,-0.198477
"30, Melbury Road, Kensington, Royal Borough of Kensington and Chelsea, London, Greater London, England, W14 8NZ, United Kingdom",Kensington,W14 8NZ,51.498477,-0.201339
"11a, Charing Cross Road, Seven Dials, Bloomsbury, London, Greater London, England, WC2H 0EP, United Kingdom",Bloomsbury,WC2H 0EP,51.510046,-0.128254
"Waterstones, 82, Gower Street, Bloomsbury, London Borough of Camden, London, Greater London, England, WC1E 6EG, United Kingdom",Bloomsbury,WC1E 6EG,51.522601,-0.131645
"The Magdala, 2a, South Hill Park, Belsize Park, London Borough of Camden, London, Greater London, England, NW3 2SB, United Kingdom",Belsize Park,NW3 2SB,51.555414,-0.165933
"Newman & Son, 4, Constantine Road, Maitland Park, Belsize Park, London Borough of Camden, London, Greater London, England, NW3 2NG, United Kingdom",Belsize Park,NW3 2NG,51.554235,-0.164614
"269-271, Seven Sisters Road, Stroud Green, London Borough of Haringey, London, Greater London, England, N4 2DF, United Kingdom",Stroud Green,N4 2DF,51.564935,-0.104235
"63, Blandford Street, Marylebone, London, Greater London, England, W1U 8EN, United Kingdom",Marylebone,W1U 8EN,51.51813,-0.155679
"49-51, Warwick Road, Earl's Court, Royal Borough of Kensington and Chelsea, London, Greater London, England, SW5 9UP, United Kingdom",Earl's Court,SW5 9UP,51.489917,-0.195232
"78;80, Randolph Avenue, Maida Vale, London, Greater London, England, W9 1BG, United Kingdom",Maida Vale,W9 1BG,51.526523,-0.181849
"Asquith House, Church Street, Paddington, London, Greater London, England, W2 1LH, United Kingdom",Paddington,W2 1LH,51.521459,-0.17362
"Pilgrim's Lane, Vale of Health, Belsize Park, London Borough of Camden, London, Greater London, England, NW3 1SS, United Kingdom",Belsize Park,NW3 1SS,51.556489,-0.170661
"Kensington, Royal Borough of Kensington and Chelsea, London, Greater London, England, W14 8BW, United Kingdom",Kensington,W14 8BW,51.495639,-0.205399
"Finchley Road, St. John's Wood, London, Greater London, England, NW8 0NU, United Kingdom",St. John's Wood,NW8 0NU,51.535857,-0.17595
"Hilton London Olympia, 380, Kensington High Street, Kensington, Royal Borough of Kensington and Chelsea, London, Greater London, England, W14 8NL, United Kingdom",Kensington,W14 8NL,51.496591,-0.206091
"14, Holland Park Road, Kensington, Royal Borough of Kensington and Chelsea, London, Greater London, England, W14 8NA, United Kingdom",Kensington,W14 8NA,51.498417,-0.203273
"Belsize Park, Haverstock Hill, Belsize Park, London Borough of Camden, London, Greater London, England, NW3 4QL, United Kingdom",Belsize Park,NW3 4QL,51.55011,-0.164361
"Hamlet Gardens, Hammersmith, London Borough of Hammersmith and Fulham, London, Greater London, England, W6 0TS, United Kingdom",Hammersmith,W6 0TS,51.494466,-0.240183
"Hammersmith Road, West Kensington, London Borough of Hammersmith and Fulham, London, Greater London, England, W14 8XJ, United Kingdom",West Kensington,W14 8XJ,51.496157,-0.208088
"Dudley Street, Paddington, London, Greater London, England, W2 1JP, United Kingdom",Paddington,W2 1JP,51.519297,-0.177069
"Kensington, Royal Borough of Kensington and Chelsea, London, Greater London, England, W14 8BW, United Kingdom",Kensington,W14 8BW,51.495548,-0.205734
"25, Randolph Avenue, Paddington, London, Greater London, England, W9 1BJ, United Kingdom",Paddington,W9 1BJ,51.525122,-0.180135
"Stourhead House, Tachbrook Street, Pimlico, London, Greater London, England, SW1V 2PU, United Kingdom",Pimlico,SW1V 2PU,51.489099,-0.134013
"7, Hammersmith Road, West Kensington, London Borough of Hammersmith and Fulham, London, Greater London, England, W14 8XJ, United Kingdom",West Kensington,W14 8XJ,51.496012,-0.208494
"29-33, Tooley Street, Bermondsey Village, The Borough, London Borough of Southwark, London, Greater London, England, SE1 2QF, United Kingdom",The Borough,SE1 2QF,51.505668,-0.08573
"20, Eastbourne Terrace, Paddington, London, Greater London, England, W2 3QU, United Kingdom",Paddington,W2 3QU,51.516565,-0.179183
"Charles House, 385, Kensington High Street, Kensington, Royal Borough of Kensington and Chelsea, London, Greater London, England, W14 8QA, United Kingdom",Kensington,W14 8QA,51.49624,-0.206847
"63, Poland Street, Soho, London, Greater London, England, W1D 2JL, United Kingdom",NA,W1D 2JL,51.513593,-0.136343
"Uniqlo, 54-58, Kensington High Street, South Kensington, Royal Borough of Kensington and Chelsea, London, Greater London, England, W8 4PE, United Kingdom",South Kensington,W8 4PE,51.502225,-0.190312
"Trinity House, 377, Kensington High Street, Kensington, Royal Borough of Kensington and Chelsea, London, Greater London, England, W14 8QA, United Kingdom",Kensington,W14 8QA,51.496459,-0.206288
"Kensington High Street, Kensington, Royal Borough of Kensington and Chelsea, London, Greater London, England, W14 8NL, United Kingdom",Kensington,W14 8NL,51.495812,-0.206289
"Rosslyn Heights, 2, Belsize Lane, Belsize Village, Belsize Park, London Borough of Camden, London, Greater London, England, NW3 5AD, United Kingdom",Belsize Park,NW3 5AD,51.552489,-0.168207
"Kensington, Royal Borough of Kensington and Chelsea, London, Greater London, England, W14 8BW, United Kingdom",Kensington,W14 8BW,51.495705,-0.205325
"St James's Church, Piccadilly, St. James's, Mayfair, London, Greater London, England, W1J 9EZ, United Kingdom",Mayfair,W1J 9EZ,51.508506,-0.136719
"Oakeford House, 72, Russell Road, Kensington, Royal Borough of Kensington and Chelsea, London, Greater London, England, W14 8HU, United Kingdom",Kensington,W14 8HU,51.497611,-0.208709
"26, Russell Road, Kensington, Royal Borough of Kensington and Chelsea, London, Greater London, England, W14 8HU, United Kingdom",Kensington,W14 8HU,51.498199,-0.209437
"Anzu, Norris Street, Soho, Bloomsbury, City of Westminster, Greater London, England, SW1Y 4QX, United Kingdom",Bloomsbury,SW1Y 4QX,51.509158,-0.132923
"Fawley Road, West Hampstead, London Borough of Camden, London, Greater London, England, NW6 1SH, United Kingdom",West Hampstead,NW6 1SH,51.550181,-0.191236
"3, Edith Road, Brook Green, London Borough of Hammersmith and Fulham, London, Greater London, England, W14 0SU, United Kingdom",Brook Green,W14 0SU,51.494075,-0.214003
"Lord Kensington House, 5, Radnor Terrace, Kensington, Royal Borough of Kensington and Chelsea, London, Greater London, England, W14 8AZ, United Kingdom",Kensington,W14 8AZ,51.495565,-0.205776
"The Magdala, 2a, South Hill Park, Belsize Park, London Borough of Camden, London, Greater London, England, NW3 2SB, United Kingdom",Belsize Park,NW3 2SB,51.555362,-0.16606
"Newman & Son, 4, Constantine Road, Maitland Park, Belsize Park, London Borough of Camden, London, Greater London, England, NW3 2NG, United Kingdom",Belsize Park,NW3 2NG,51.554331,-0.164273
"Kensington High Street, Kensington, Royal Borough of Kensington and Chelsea, London, Greater London, England, W14 8NS, United Kingdom",Kensington,W14 8NS,51.496986,-0.204659
"Lord Kensington House, 5, Radnor Terrace, Kensington, Royal Borough of Kensington and Chelsea, London, Greater London, England, W14 8AZ, United Kingdom",Kensington,W14 8AZ,51.495646,-0.206133
"The Magdala, 2a, South Hill Park, Belsize Park, London Borough of Camden, London, Greater London, England, NW3 2SB, United Kingdom",Belsize Park,NW3 2SB,51.55535,-0.166063
"Sussex Fish Bar, 20, London Street, Paddington, London, Greater London, England, W2 1HL, United Kingdom",Paddington,W2 1HL,51.515102,-0.17391
"Lord Kensington House, 5, Radnor Terrace, Kensington, Royal Borough of Kensington and Chelsea, London, Greater London, England, W14 8AZ, United Kingdom",Kensington,W14 8AZ,51.495612,-0.205782
"Kensington High Street, Kensington, Royal Borough of Kensington and Chelsea, London, Greater London, England, W14 8NL, United Kingdom",Kensington,W14 8NL,51.495753,-0.206184
"Kensington High Street, Kensington, Royal Borough of Kensington and Chelsea, London, Greater London, England, W8 6SG, United Kingdom",Kensington,W8 6SG,51.500062,-0.195787
"Kensington High Street, Kensington, Royal Borough of Kensington and Chelsea, London, Greater London, England, W14 8NL, United Kingdom",Kensington,W14 8NL,51.495861,-0.20636
"41, Vauxhall Bridge Road, Millbank, London, Greater London, England, SW1V 2RP, United Kingdom",Millbank,SW1V 2RP,51.490842,-0.134207
"Shepherds Bush Green, Shepherd's Bush, London Borough of Hammersmith and Fulham, London, Greater London, England, W12 8PJ, United Kingdom",Shepherd's Bush,W12 8PJ,51.504213,-0.218803
"Portsoken Street, Aldgate, City of London, Greater London, England, E1 8AL, United Kingdom",NA,E1 8AL,51.511907,-0.073153
"375 Kensington High Street, Kensington, Royal Borough of Kensington and Chelsea, London, Greater London, England, W14 8QA, United Kingdom",Kensington,W14 8QA,51.496163,-0.206859
"31, Warwick Gardens, Kensington, Royal Borough of Kensington and Chelsea, London, Greater London, England, W14 8PR, United Kingdom",Kensington,W14 8PR,51.495961,-0.203116
"Russell Road, Kensington, Royal Borough of Kensington and Chelsea, London, Greater London, England, W14 8HU, United Kingdom",Kensington,W14 8HU,51.498223,-0.209606
"Lollard Street, Ethelred Estate, Lambeth, London Borough of Lambeth, London, Greater London, England, SE11 6PX, United Kingdom",Lambeth,SE11 6PX,51.492529,-0.114241
"8, Aubrey Walk, Notting Hill, Royal Borough of Kensington and Chelsea, London, Greater London, England, W8 7JG, United Kingdom",Notting Hill,W8 7JG,51.506578,-0.200361
"Addison Road, Kensington, Royal Borough of Kensington and Chelsea, London, Greater London, England, W14 8NU, United Kingdom",Kensington,W14 8NU,51.497505,-0.204942
"WS Studios, 68, Lupus Street, Pimlico, London, Greater London, England, SW1V 3EJ, United Kingdom",Pimlico,SW1V 3EJ,51.487952,-0.140357
"Warwick Gardens, Kensington, Royal Borough of Kensington and Chelsea, London, Greater London, England, W14 8NU, United Kingdom",Kensington,W14 8NU,51.497112,-0.204445
"The Magdala, 2a, South Hill Park, Belsize Park, London Borough of Camden, London, Greater London, England, NW3 2SB, United Kingdom",Belsize Park,NW3 2SB,51.555387,-0.166013
"BT, 60, Cleveland Street, Fitzrovia, London Borough of Camden, London, Greater London, England, W1T 4JZ, United Kingdom",Fitzrovia,W1T 4JZ,51.521606,-0.139761
"60, Holland Park Road, Kensington, Royal Borough of Kensington and Chelsea, London, Greater London, England, W14 8NA, United Kingdom",Kensington,W14 8NA,51.497751,-0.20494
"Benson House, 4, Radnor Terrace, Kensington, Royal Borough of Kensington and Chelsea, London, Greater London, England, W14 8AZ, United Kingdom",Kensington,W14 8AZ,51.495424,-0.206648
"Hampstead Heath, South Hill Park, Belsize Park, London Borough of Camden, London, Greater London, England, NW3 2SB, United Kingdom",Belsize Park,NW3 2SB,51.555315,-0.166192
"South End Road, Belsize Park, London Borough of Camden, London, Greater London, England, NW3 2QE, United Kingdom",Belsize Park,NW3 2QE,51.554246,-0.165316
"Euphorium Bakery, 45, South End Road, Vale of Health, Belsize Park, London Borough of Camden, London, Greater London, England, NW3 2QB, United Kingdom",Belsize Park,NW3 2QB,51.555304,-0.166266
"Euston Road, King's Cross, London Borough of Camden, London, Greater London, England, NW1 2ST, United Kingdom",King's Cross,NW1 2ST,51.530004,-0.124134
"85, Hammersmith Road, West Kensington, London Borough of Hammersmith and Fulham, London, Greater London, England, W14 0QH, United Kingdom",West Kensington,W14 0QH,51.494983,-0.21154
"Royal Free Hospital, Pond Street, Belsize Park, London Borough of Camden, London, Greater London, England, NW3 2QG, United Kingdom",Belsize Park,NW3 2QG,51.55227,-0.165381
"Trebovir Road, Earl's Court, Royal Borough of Kensington and Chelsea, London, Greater London, England, SW5 9TD, United Kingdom",Earl's Court,SW5 9TD,51.490742,-0.196568
"Belushi's, 15, Shepherds Bush Green, Shepherd's Bush, London Borough of Hammersmith and Fulham, London, Greater London, England, W12 8PH, United Kingdom",Shepherd's Bush,W12 8PH,51.50406,-0.217804
"Vaughan Way, East Smithfield, Wapping, London Borough of Tower Hamlets, London, Greater London, England, E1W 2AF, United Kingdom",Wapping,E1W 2AF,51.508428,-0.067075
"Notes, 10, Sir Simon Milton Square, Victoria, London, Greater London, England, SW1E 5DJ, United Kingdom",Victoria,SW1E 5DJ,51.497902,-0.143467
"38, Belsize Park Gardens, Swiss Cottage, Belsize Park, London Borough of Camden, London, Greater London, England, NW3 4NA, United Kingdom",Belsize Park,NW3 4NA,51.547796,-0.166843
"The Magdala, 2a, South Hill Park, Belsize Park, London Borough of Camden, London, Greater London, England, NW3 2SB, United Kingdom",Belsize Park,NW3 2SB,51.555357,-0.166023
"The Magdala, 2a, South Hill Park, Belsize Park, London Borough of Camden, London, Greater London, England, NW3 2SB, United Kingdom",Belsize Park,NW3 2SB,51.5553,-0.166083
"Royal Free Hospital, Pond Street, Belsize Park, London Borough of Camden, London, Greater London, England, NW3 2QG, United Kingdom",Belsize Park,NW3 2QG,51.553744,-0.166645
"Roman Southwark, Bank End, Bankside, The Borough, London Borough of Southwark, London, Greater London, England, SE1 9BU, United Kingdom",The Borough,SE1 9BU,51.506053,-0.087939
"The Hand and Flower, 1, Hammersmith Road, West Kensington, London Borough of Hammersmith and Fulham, London, Greater London, England, W14 8XJ, United Kingdom",West Kensington,W14 8XJ,51.496225,-0.208226
"375 Kensington High Street, Kensington, Royal Borough of Kensington and Chelsea, London, Greater London, England, W14 8QA, United Kingdom",Kensington,W14 8QA,51.495581,-0.2061
"South End Road, Belsize Park, London Borough of Camden, London, Greater London, England, NW3 2QE, United Kingdom",Belsize Park,NW3 2QE,51.554257,-0.165148
"Lord Kensington House, 5, Radnor Terrace, Kensington, Royal Borough of Kensington and Chelsea, London, Greater London, England, W14 8AZ, United Kingdom",Kensington,W14 8AZ,51.495685,-0.205934
"Criterion Building, 225/229, Piccadilly, St. James's, Mayfair, London, Greater London, England, W1J 9HR, United Kingdom",Mayfair,W1J 9HR,51.509831,-0.133404
"8, Philbeach Gardens, Earl's Court, Royal Borough of Kensington and Chelsea, London, Greater London, England, SW5 9EZ, United Kingdom",Earl's Court,SW5 9EZ,51.49054,-0.197182
"The Magdala, 2a, South Hill Park, Belsize Park, London Borough of Camden, London, Greater London, England, NW3 2SB, United Kingdom",Belsize Park,NW3 2SB,51.555349,-0.165988
"67-68, Pall Mall, St. James's, Victoria, London, Greater London, England, SW1Y 5EY, United Kingdom",Victoria,SW1Y 5EY,51.505391,-0.137343
"El Ahrir, 175, Edgware Road, Paddington, London, Greater London, England, W2 2HR, United Kingdom",Paddington,W2 2HR,51.517933,-0.167601
"552, Harrow Road, Kensal Town, Queen's Park, London, Greater London, England, W10 4NE, United Kingdom",Kensal Town,W10 4NE,51.525766,-0.204552
"Hammersmith Road, West Kensington, London Borough of Hammersmith and Fulham, London, Greater London, England, W14 8XJ, United Kingdom",West Kensington,W14 8XJ,51.496,-0.20878
"Hilton London Olympia, 380, Kensington High Street, Kensington, Royal Borough of Kensington and Chelsea, London, Greater London, England, W14 8NL, United Kingdom",Kensington,W14 8NL,51.496375,-0.206866
"25, King Street, Hammersmith, London Borough of Hammersmith and Fulham, London, Greater London, England, W6 9HW, United Kingdom",Hammersmith,W6 9HW,51.492797,-0.227059
"The Magdala, 2a, South Hill Park, Belsize Park, London Borough of Camden, London, Greater London, England, NW3 2SB, United Kingdom",Belsize Park,NW3 2SB,51.555303,-0.166151
"Wellington Court, 116, Knightsbridge, London, Greater London, England, SW7 1DW, United Kingdom",Knightsbridge,SW7 1DW,51.501753,-0.162588
"Ravenscourt Park, Ravenscourt Place, Hammersmith, London Borough of Hammersmith and Fulham, London, Greater London, England, W6 0UN, United Kingdom",Hammersmith,W6 0UN,51.494074,-0.236256
"Petty France, Victoria, London, Greater London, England, SW1H 9ET, United Kingdom",Victoria,SW1H 9ET,51.499109,-0.137639
"17-19, Foley Street, East Marylebone, Fitzrovia, Camden Town, City of Westminster, Greater London, England, W1W 7TN, United Kingdom",Fitzrovia,W1W 7TN,51.519574,-0.139715
"17, Bonny Street, Kentish Town, London Borough of Camden, London, Greater London, England, NW1 9PE, United Kingdom",Kentish Town,NW1 9PE,51.541808,-0.139421
"3, Ravenscourt Road, Hammersmith, London Borough of Hammersmith and Fulham, London, Greater London, England, W6 0UH, United Kingdom",Hammersmith,W6 0UH,51.493816,-0.236658
"Kensington High Street, Kensington, Royal Borough of Kensington and Chelsea, London, Greater London, England, W14 8NS, United Kingdom",Kensington,W14 8NS,51.496987,-0.204717
"Hammersmith Road, West Kensington, London Borough of Hammersmith and Fulham, London, Greater London, England, W14 8SB, United Kingdom",West Kensington,W14 8SB,51.495461,-0.211094
"Ivy Lodge, 122, Notting Hill Gate, Notting Hill, Royal Borough of Kensington and Chelsea, London, Greater London, England, W11 3QP, United Kingdom",Notting Hill,W11 3QP,51.508786,-0.19902
"Hampsted Tea Rooms, 9, South End Road, Belsize Park, London Borough of Camden, London, Greater London, England, NW3 2PT, United Kingdom",Belsize Park,NW3 2PT,51.554273,-0.165711
"The Barkers Building, Kensington High Street, Kensington, Royal Borough of Kensington and Chelsea, London, Greater London, England, W8 5SE, United Kingdom",Kensington,W8 5SE,51.501599,-0.19117
"Uxbridge Road, Shepherd's Bush, London Borough of Hammersmith and Fulham, London, Greater London, England, W12 8ND, United Kingdom",Shepherd's Bush,W12 8ND,51.50457,-0.218552
"The Magdala, 2a, South Hill Park, Belsize Park, London Borough of Camden, London, Greater London, England, NW3 2SB, United Kingdom",Belsize Park,NW3 2SB,51.55539,-0.165998
"Russell Road, Kensington, Royal Borough of Kensington and Chelsea, London, Greater London, England, W14 8HU, United Kingdom",Kensington,W14 8HU,51.496595,-0.20742
"107, Holland Road, Kensington, Royal Borough of Kensington and Chelsea, London, Greater London, England, W14 8EZ, United Kingdom",Kensington,W14 8EZ,51.500259,-0.210985
"The Barkers Building, Kensington High Street, Kensington, Royal Borough of Kensington and Chelsea, London, Greater London, England, W8 5SE, United Kingdom",Kensington,W8 5SE,51.501605,-0.1915
"Lyndhurst Road, Belsize Park, London Borough of Camden, London, Greater London, England, NW3 5TB, United Kingdom",Belsize Park,NW3 5TB,51.553085,-0.171033
"Embassy of South Korea, Buckingham Gate, Westminster, Victoria, London, Greater London, England, SW1E 6AU, United Kingdom",Victoria,SW1E 6AU,51.498025,-0.136006
"110, Cannon Street, Cornhill, City of London, Greater London, England, EC4N 6EU, United Kingdom",NA,EC4N 6EU,51.511115,-0.087554
"Cte Brasserie, 26-27, Devonshire Street, Marylebone, Camden Town, London, Greater London, England, W1G 6PL, United Kingdom",Marylebone,W1G 6PL,51.521181,-0.151375
"The Magdala, 2a, South Hill Park, Belsize Park, London Borough of Camden, London, Greater London, England, NW3 2SB, United Kingdom",Belsize Park,NW3 2SB,51.555312,-0.166084
"Great Western Road, Westbourne Green, Maida Hill, London, Greater London, England, W11 1AB, United Kingdom",Maida Hill,W11 1AB,51.52076,-0.200585
"Kensington High Street, Kensington, Royal Borough of Kensington and Chelsea, London, Greater London, England, W14 8NL, United Kingdom",Kensington,W14 8NL,51.495887,-0.206346
"No 1 Coffee London, Ravenscourt Place, Hammersmith, London Borough of Hammersmith and Fulham, London, Greater London, England, W6 0UN, United Kingdom",Hammersmith,W6 0UN,51.494013,-0.236553
"M&S Foodhall, 10, Pond Street, Belsize Park, London Borough of Camden, London, Greater London, England, NW3 2PS, United Kingdom",Belsize Park,NW3 2PS,51.554136,-0.165325
"1, Howitt Road, Swiss Cottage, Belsize Park, London Borough of Camden, London, Greater London, England, NW3 4LT, United Kingdom",Belsize Park,NW3 4LT,51.550076,-0.16449
"Hermes London Dental Clinic, 205, Vauxhall Bridge Road, Victoria, London, Greater London, England, SW1V 1ER, United Kingdom",Victoria,SW1V 1ER,51.493418,-0.139554
"375 Kensington High Street, Kensington, Royal Borough of Kensington and Chelsea, London, Greater London, England, W14 8QA, United Kingdom",Kensington,W14 8QA,51.495644,-0.206215
"Kensington Dentist, 4, Wrights Lane, Kensington, Royal Borough of Kensington and Chelsea, London, Greater London, England, W8 5SW, United Kingdom",Kensington,W8 5SW,51.500796,-0.193533
"The Magdala, 2a, South Hill Park, Belsize Park, London Borough of Camden, London, Greater London, England, NW3 2SB, United Kingdom",Belsize Park,NW3 2SB,51.555271,-0.166177
"Kingfisher House, 6, Melbury Road, Kensington, Royal Borough of Kensington and Chelsea, London, Greater London, England, W14 8LJ, United Kingdom",Kensington,W14 8LJ,51.499284,-0.204259
"42, Notting Hill Gate, Notting Hill, Royal Borough of Kensington and Chelsea, London, Greater London, England, W11 3HX, United Kingdom",Notting Hill,W11 3HX,51.50932,-0.194921
"Downshire Hill, Vale of Health, Belsize Park, London Borough of Camden, London, Greater London, England, NW3 1NX, United Kingdom",Belsize Park,NW3 1NX,51.557358,-0.167928
"SOAS University of London, Malet Street, Saint Giles, Bloomsbury, London Borough of Camden, London, Greater London, England, WC1E 6DP, United Kingdom",Bloomsbury,WC1E 6DP,51.522433,-0.128549
"Embassy of South Korea, Buckingham Gate, Westminster, Victoria, London, Greater London, England, SW1E 6AU, United Kingdom",Victoria,SW1E 6AU,51.498017,-0.136004
"Royal Free Hospital, Pond Street, Belsize Park, London Borough of Camden, London, Greater London, England, NW3 2QG, United Kingdom",Belsize Park,NW3 2QG,51.553881,-0.166056
"2d, Melbury Road, Kensington, Royal Borough of Kensington and Chelsea, London, Greater London, England, W14 8LP, United Kingdom",Kensington,W14 8LP,51.498595,-0.205739
"Belsize Avenue, Swiss Cottage, Belsize Park, London Borough of Camden, London, Greater London, England, NW3 4AE, United Kingdom",Belsize Park,NW3 4AE,51.55118,-0.166665
"London Zoo, Regent's Canal Towpath, Primrose Hill, Chalk Farm, London Borough of Camden, London, Greater London, England, NW1 4RY, United Kingdom",Chalk Farm,NW1 4RY,51.535402,-0.157819
"The Chamberlayne, 83, Chamberlayne Road, Brondesbury Park, Queen's Park, London Borough of Brent, London, Greater London, England, NW10 3ND, United Kingdom",Queen's Park,NW10 3ND,51.534067,-0.218876
"Finchley Road, Swiss Cottage, South Hampstead, London Borough of Camden, London, Greater London, England, NW3 6BT, United Kingdom",South Hampstead,NW3 6BT,51.54968,-0.181733
"Hilton London Olympia, 380, Kensington High Street, Kensington, Royal Borough of Kensington and Chelsea, London, Greater London, England, W14 8NL, United Kingdom",Kensington,W14 8NL,51.496434,-0.206678
"Holborn Gate, 326-330, High Holborn, Gray's Inn, Holborn, London Borough of Camden, London, Greater London, England, WC1V 6DR, United Kingdom",Holborn,WC1V 6DR,51.518148,-0.111907
"1-3, Gloucester Road, South Kensington, Royal Borough of Kensington and Chelsea, London, Greater London, England, SW7 4PP, United Kingdom",South Kensington,SW7 4PP,51.499178,-0.183683
"Lord Kensington House, 5, Radnor Terrace, Kensington, Royal Borough of Kensington and Chelsea, London, Greater London, England, W14 8AZ, United Kingdom",Kensington,W14 8AZ,51.495677,-0.206173
"Holland Gardens, Kensington, Royal Borough of Kensington and Chelsea, London, Greater London, England, W14 8HT, United Kingdom",Kensington,W14 8HT,51.498908,-0.210199
"92, Philbeach Gardens, Earl's Court, Royal Borough of Kensington and Chelsea, London, Greater London, England, SW5 9EZ, United Kingdom",Earl's Court,SW5 9EZ,51.490524,-0.199199
"102-106, Kensington High Street, Kensington, Royal Borough of Kensington and Chelsea, London, Greater London, England, W8 4SN, United Kingdom",Kensington,W8 4SN,51.501123,-0.192876
"25, Elsham Road, Notting Hill, Royal Borough of Kensington and Chelsea, London, Greater London, England, W14 8HA, United Kingdom",Notting Hill,W14 8HA,51.50136,-0.213043
"9-27, Fitz-George Avenue, West Kensington, London Borough of Hammersmith and Fulham, London, Greater London, England, W14 0SN, United Kingdom",West Kensington,W14 0SN,51.493109,-0.211742
"Astley House, 15-35, Notting Hill Gate, Notting Hill, Royal Borough of Kensington and Chelsea, London, Greater London, England, W11 3JR, United Kingdom",Notting Hill,W11 3JR,51.509207,-0.194889
"Russell Road, Kensington, Royal Borough of Kensington and Chelsea, London, Greater London, England, W14 8HU, United Kingdom",Kensington,W14 8HU,51.49805,-0.209614
"Old Court House, 24, Old Court Place, Kensington, Royal Borough of Kensington and Chelsea, London, Greater London, England, W8 4PL, United Kingdom",Kensington,W8 4PL,51.502371,-0.189756
"Hampstead Heath, South Hill Park, Belsize Park, London Borough of Camden, London, Greater London, England, NW3 2SB, United Kingdom",Belsize Park,NW3 2SB,51.555358,-0.16615
"67-112 Saint Mary Abbot's Court, Warwick Gardens, Kensington, Royal Borough of Kensington and Chelsea, London, Greater London, England, W14 8RD, United Kingdom",Kensington,W14 8RD,51.496426,-0.203819
"The Hand and Flower, 1, Hammersmith Road, West Kensington, London Borough of Hammersmith and Fulham, London, Greater London, England, W14 8XJ, United Kingdom",West Kensington,W14 8XJ,51.495903,-0.208006
"52, Holland Road, Kensington, Royal Borough of Kensington and Chelsea, London, Greater London, England, W14 8BA, United Kingdom",Kensington,W14 8BA,51.498302,-0.208154
"Belsize Park, Haverstock Hill, Belsize Park, London Borough of Camden, London, Greater London, England, NW3 4QL, United Kingdom",Belsize Park,NW3 4QL,51.550144,-0.16434000000000001
"Heath News, 43, South End Road, Belsize Park, London Borough of Camden, London, Greater London, England, NW3 2PY, United Kingdom",Belsize Park,NW3 2PY,51.555192,-0.166156
"Vauxhall Bridge, Millbank, London, Greater London, England, SW1V 3JL, United Kingdom",Millbank,SW1V 3JL,51.488513,-0.129456
"Great Western Road, Westbourne Green, Maida Hill, London, Greater London, England, W11 1AB, United Kingdom",Maida Hill,W11 1AB,51.521113,-0.200824
"Hampstead Heath, South Hill Park, Belsize Park, London Borough of Camden, London, Greater London, England, NW3 2SB, United Kingdom",Belsize Park,NW3 2SB,51.555483,-0.166105
"McDonald's, Quill Street, Brentham Garden Suburb, Park Royal, London Borough of Ealing, London, Greater London, England, W5 1DN, United Kingdom",Park Royal,W5 1DN,51.534015,-0.296084
"Pillford House, 11, Old Paradise Street, Kennington Cross, Lambeth, London Borough of Lambeth, London, Greater London, England, SE11 6BB, United Kingdom",Lambeth,SE11 6BB,51.493885,-0.118639
"19, Belsize Park Gardens, Swiss Cottage, Belsize Park, London Borough of Camden, London, Greater London, England, NW3 4JG, United Kingdom",Belsize Park,NW3 4JG,51.548095000000004,-0.168949
"114, Senior Street, Warwick Estate, Maida Vale, London, Greater London, England, W2 5TL, United Kingdom",Maida Vale,W2 5TL,51.521977,-0.188622
"25, St Mary Abbots Terrace, Kensington, Royal Borough of Kensington and Chelsea, London, Greater London, England, W14 8NX, United Kingdom",Kensington,W14 8NX,51.498087,-0.202936
"8, Addison Bridge Place, West Kensington, London Borough of Hammersmith and Fulham, London, Greater London, England, W14 8XW, United Kingdom",West Kensington,W14 8XW,51.495442,-0.207087
"59, Melbury Road, Kensington, Royal Borough of Kensington and Chelsea, London, Greater London, England, W14 8NZ, United Kingdom",Kensington,W14 8NZ,51.498562,-0.201247
"8, Addison Bridge Place, West Kensington, London Borough of Hammersmith and Fulham, London, Greater London, England, W14 8XW, United Kingdom",West Kensington,W14 8XW,51.495467,-0.20707
"Edward House, 2, Radnor Terrace, Kensington, Royal Borough of Kensington and Chelsea, London, Greater London, England, W14 8AZ, United Kingdom",Kensington,W14 8AZ,51.495189,-0.206071
"Fleet Road, Maitland Park, Belsize Park, London Borough of Camden, London, Greater London, England, NW3 2QX, United Kingdom",Belsize Park,NW3 2QX,51.553705,-0.163563
"1, Abingdon Road, Kensington, Royal Borough of Kensington and Chelsea, London, Greater London, England, W8 6AH, United Kingdom",Kensington,W8 6AH,51.499449,-0.197267
"The Kensington Arcade, Kensington High Street, Kensington, Royal Borough of Kensington and Chelsea, London, Greater London, England, W8 5SF, United Kingdom",Kensington,W8 5SF,51.500988,-0.192881
"The Magdala, 2a, South Hill Park, Belsize Park, London Borough of Camden, London, Greater London, England, NW3 2SB, United Kingdom",Belsize Park,NW3 2SB,51.555379,-0.166026
"44-48, Dover Street, St. James's, Mayfair, London, Greater London, England, W1S 4NW, United Kingdom",Mayfair,W1S 4NW,51.50795,-0.141747
"Rodizio Preto, 69-73, Shaftesbury Avenue, Saint Giles, Bloomsbury, City of Westminster, Greater London, England, W1D 6NG, United Kingdom",Bloomsbury,W1D 6NG,51.512144,-0.13171
"Ibberton House, 70, Russell Road, Kensington, Royal Borough of Kensington and Chelsea, London, Greater London, England, W14 8HU, United Kingdom",Kensington,W14 8HU,51.498204,-0.209514
"Welby, 37, Belsize Avenue, Swiss Cottage, Belsize Park, London Borough of Camden, London, Greater London, England, NW3 4AE, United Kingdom",Belsize Park,NW3 4AE,51.550354,-0.168121
"Bessborough Gardens, Millbank, London, Greater London, England, SW1V 2JQ, United Kingdom",Millbank,SW1V 2JQ,51.488683,-0.129918
"Westminster Telephone Exchange, 1A, Broadway, Westminster, Millbank, London, Greater London, England, SW1H 0QW, United Kingdom",Millbank,SW1H 0QW,51.497961,-0.133943
"18, Dartmouth Street, Westminster, Millbank, London, Greater London, England, SW1H 9NB, United Kingdom",Millbank,SW1H 9NB,51.499781,-0.132207
"The Crystal Maze LIVE Experience, 22-32, Shaftesbury Avenue, Saint Giles, Bloomsbury, London, Greater London, England, W1D 7EU, United Kingdom",Bloomsbury,W1D 7EU,51.510961,-0.133681
"Lord Kensington House, 5, Radnor Terrace, Kensington, Royal Borough of Kensington and Chelsea, London, Greater London, England, W14 8AZ, United Kingdom",Kensington,W14 8AZ,51.495719,-0.206156
"Kenton Court, 356, Kensington High Street, Kensington, Royal Borough of Kensington and Chelsea, London, Greater London, England, W14 8NW, United Kingdom",Kensington,W14 8NW,51.496697,-0.205485
"Norfolk Square, Paddington, London, Greater London, England, W2 1QW, United Kingdom",Paddington,W2 1QW,51.51643,-0.172207
"Abercorn Place, St. John's Wood, London, Greater London, England, NW8 9XU, United Kingdom",St. John's Wood,NW8 9XU,51.531802,-0.182438
"Criterion Building, 225/229, Piccadilly, St. James's, Mayfair, London, Greater London, England, W1J 9HR, United Kingdom",Mayfair,W1J 9HR,51.509753,-0.133135
"The Magdala, 2a, South Hill Park, Belsize Park, London Borough of Camden, London, Greater London, England, NW3 2SB, United Kingdom",Belsize Park,NW3 2SB,51.555324,-0.166133
"8, Langler Road, Brondesbury Park, Queen's Park, London Borough of Brent, London, Greater London, England, NW10 5TL, United Kingdom",Queen's Park,NW10 5TL,51.531893,-0.220729
"146-148, Clerkenwell Road, Hatton Garden, Holborn, London Borough of Camden, London, Greater London, England, EC1R 5ET, United Kingdom",Holborn,EC1R 5ET,51.522049,-0.109898
"375 Kensington High Street, Kensington, Royal Borough of Kensington and Chelsea, London, Greater London, England, W14 8QA, United Kingdom",Kensington,W14 8QA,51.495631,-0.206209
"72-74, Kensington High Street, Kensington, Royal Borough of Kensington and Chelsea, London, Greater London, England, W8 5SE, United Kingdom",Kensington,W8 5SE,51.50211,-0.190897
"203, Ladbroke Grove, Lancaster West Estate, North Kensington, Royal Borough of Kensington and Chelsea, London, Greater London, England, W10 5LZ, United Kingdom",North Kensington,W10 5LZ,51.51924,-0.211135
"Benson House, 4, Radnor Terrace, Kensington, Royal Borough of Kensington and Chelsea, London, Greater London, England, W14 8AZ, United Kingdom",Kensington,W14 8AZ,51.495637,-0.206539
"Kahn Automobiles, 377, Kensington High Street, Kensington, Royal Borough of Kensington and Chelsea, London, Greater London, England, W14 8QA, United Kingdom",Kensington,W14 8QA,51.496585,-0.205874
"Shepherds Bush Green, Shepherd's Bush, London Borough of Hammersmith and Fulham, London, Greater London, England, W12 8ND, United Kingdom",Shepherd's Bush,W12 8ND,51.50418,-0.217624
"Pond Street, Belsize Park, London Borough of Camden, London, Greater London, England, NW3 2QG, United Kingdom",Belsize Park,NW3 2QG,51.55399,-0.16532
"1, Ravenscourt Place, Hammersmith, London Borough of Hammersmith and Fulham, London, Greater London, England, W6 0UN, United Kingdom",Hammersmith,W6 0UN,51.493937,-0.236497
"127, Kensington High Street, Kensington, Royal Borough of Kensington and Chelsea, London, Greater London, England, W8 5SF, United Kingdom",Kensington,W8 5SF,51.500959,-0.193234
"RavensWall Climbing Centre, Ravenscourt Road, Hammersmith, London Borough of Hammersmith and Fulham, London, Greater London, England, W6 0UQ, United Kingdom",Hammersmith,W6 0UQ,51.494156,-0.236118
"Chapter White City, 10, Westway, London Borough of Hammersmith and Fulham, London, Greater London, England, W12 0QH, United Kingdom",NA,W12 0QH,51.513661,-0.24853
"The Magdala, 2a, South Hill Park, Belsize Park, London Borough of Camden, London, Greater London, England, NW3 2SB, United Kingdom",Belsize Park,NW3 2SB,51.555309,-0.166146
"Edward House, 2, Radnor Terrace, Kensington, Royal Borough of Kensington and Chelsea, London, Greater London, England, W14 8AZ, United Kingdom",Kensington,W14 8AZ,51.495276,-0.206127
"Holiday Inn, Bolsover Street, East Marylebone, Fitzrovia, Camden Town, City of Westminster, Greater London, England, W1W 5NP, United Kingdom",Fitzrovia,W1W 5NP,51.522286,-0.142403
"Getti, 16-17, Jermyn Street, St. James's, Mayfair, London, Greater London, England, SW1Y 6EE, United Kingdom",Mayfair,SW1Y 6EE,51.509235,-0.13433
"No 1 Coffee London, Ravenscourt Place, Hammersmith, London Borough of Hammersmith and Fulham, London, Greater London, England, W6 0UN, United Kingdom",Hammersmith,W6 0UN,51.494,-0.236534
"8, Addison Bridge Place, West Kensington, London Borough of Hammersmith and Fulham, London, Greater London, England, W14 8XW, United Kingdom",West Kensington,W14 8XW,51.495501,-0.20708
"Brewers Green, Westminster, Victoria, London, Greater London, England, SW1H 0PY, United Kingdom",Victoria,SW1H 0PY,51.498197,-0.135954
"Lord Kensington House, 5, Radnor Terrace, Kensington, Royal Borough of Kensington and Chelsea, London, Greater London, England, W14 8AZ, United Kingdom",Kensington,W14 8AZ,51.495759,-0.205891
"Charles House, 385, Kensington High Street, Kensington, Royal Borough of Kensington and Chelsea, London, Greater London, England, W14 8QA, United Kingdom",Kensington,W14 8QA,51.496426,-0.206466
"The Magdala, 2a, South Hill Park, Belsize Park, London Borough of Camden, London, Greater London, England, NW3 2SB, United Kingdom",Belsize Park,NW3 2SB,51.555357,-0.166031
"Hammersmith Road, West Kensington, London Borough of Hammersmith and Fulham, London, Greater London, England, W14 8XJ, United Kingdom",West Kensington,W14 8XJ,51.496124,-0.207477
"55, Adolphus Road, Brownswood Park, Stoke Newington, London Borough of Hackney, London, Greater London, England, N4 2AX, United Kingdom",Stoke Newington,N4 2AX,51.568085,-0.097483
"Capital Tower, 91, Waterloo Road, South Bank, Waterloo, London Borough of Lambeth, London, Greater London, England, SE1 8UH, United Kingdom",Waterloo,SE1 8UH,51.503299,-0.110893
"49, Cathcart Road, The Boltons, Brompton, Royal Borough of Kensington and Chelsea, London, Greater London, England, SW10 9JE, United Kingdom",Brompton,SW10 9JE,51.485829,-0.185846
"The Grosvenor, 79, Grosvenor Road, Millbank, London, Greater London, England, SW1V 3LA, United Kingdom",Millbank,SW1V 3LA,51.486937,-0.130893
"34, Torrington Place, Bloomsbury, London Borough of Camden, London, Greater London, England, WC1E 7HG, United Kingdom",Bloomsbury,WC1E 7HG,51.522816,-0.131718
"71, Upper Park Road, Maitland Park, Belsize Park, London Borough of Camden, London, Greater London, England, NW3 2UJ, United Kingdom",Belsize Park,NW3 2UJ,51.552861,-0.161198
"Royal Free Hospital, Pond Street, Belsize Park, London Borough of Camden, London, Greater London, England, NW3 2QG, United Kingdom",Belsize Park,NW3 2QG,51.554042,-0.165281
"Riverside Gardens, Hammersmith, London Borough of Hammersmith and Fulham, London, Greater London, England, W6 9JJ, United Kingdom",Hammersmith,W6 9JJ,51.4919,-0.23222
"140, Randolph Avenue, Maida Vale, London, Greater London, England, W9 1PG, United Kingdom",Maida Vale,W9 1PG,51.52895,-0.184797
"Al Arez Express, 132, Edgware Road, Marylebone, London, Greater London, England, W2 2HX, United Kingdom",Marylebone,W2 2HX,51.516478,-0.164895
"24, Russell Road, Kensington, Royal Borough of Kensington and Chelsea, London, Greater London, England, W14 8HU, United Kingdom",Kensington,W14 8HU,51.498094,-0.20926
"110, Philbeach Gardens, Earl's Court, Royal Borough of Kensington and Chelsea, London, Greater London, England, SW5 9EZ, United Kingdom",Earl's Court,SW5 9EZ,51.490571,-0.197246
"Hobson House, 85, Notting Hill Gate, Notting Hill, Royal Borough of Kensington and Chelsea, London, Greater London, England, W11 3HP, United Kingdom",Notting Hill,W11 3HP,51.508833,-0.197081
"Durrels House, Warwick Gardens, Kensington, Royal Borough of Kensington and Chelsea, London, Greater London, England, W14 8PP, United Kingdom",Kensington,W14 8PP,51.4959,-0.203362
"Avonmore Road, West Kensington, London Borough of Hammersmith and Fulham, London, Greater London, England, W14 8SA, United Kingdom",West Kensington,W14 8SA,51.493508,-0.204341
"The Beehive, 305, Cambridge Heath Road, Globe Town, Bethnal Green, London Borough of Tower Hamlets, London, Greater London, England, E2 9LH, United Kingdom",Bethnal Green,E2 9LH,51.527999,-0.055481
"Crestfield Hotel, 2-4, Crestfield Street, King's Cross, London Borough of Camden, London, Greater London, England, WC1H 8AT, United Kingdom",King's Cross,WC1H 8AT,51.530133,-0.123077
"Mohsen, 152, Warwick Road, Kensington, Royal Borough of Kensington and Chelsea, London, Greater London, England, W14 8QB, United Kingdom",Kensington,W14 8QB,51.495085,-0.203106
"King Street, Hammersmith, London Borough of Hammersmith and Fulham, London, Greater London, England, W6 9HW, United Kingdom",Hammersmith,W6 9HW,51.492581,-0.227227
"Istanbul Restaurant, 9, Stoke Newington Road, Shacklewell, London Borough of Hackney, London, Greater London, England, N16 8BH, United Kingdom",Shacklewell,N16 8BH,51.550889,-0.075182
"Marylebone Road, East Marylebone, Marylebone, Camden Town, City of Westminster, Greater London, England, W1B 1AA, United Kingdom",Marylebone,W1B 1AA,51.52381,-0.146409
"127, Notting Hill Gate, Notting Hill, Royal Borough of Kensington and Chelsea, London, Greater London, England, W8 7TQ, United Kingdom",Notting Hill,W8 7TQ,51.508654,-0.198922
"Kenbrook House, 292, Kensington High Street, Kensington, Royal Borough of Kensington and Chelsea, London, Greater London, England, W14 8NZ, United Kingdom",Kensington,W14 8NZ,51.498216,-0.20164
"Hampstead Heath, South Hill Park, Belsize Park, London Borough of Camden, London, Greater London, England, NW3 2SB, United Kingdom",Belsize Park,NW3 2SB,51.555379,-0.166185
"85, Warwick Road, Earl's Court, Royal Borough of Kensington and Chelsea, London, Greater London, England, SW5 9UB, United Kingdom",Earl's Court,SW5 9UB,51.491445,-0.198174
"Spenser Street, Westminster, Victoria, London, Greater London, England, SW1E 6AZ, United Kingdom",Victoria,SW1E 6AZ,51.497851,-0.136022
"Hilton London Olympia, 380, Kensington High Street, Kensington, Royal Borough of Kensington and Chelsea, London, Greater London, England, W14 8NL, United Kingdom",Kensington,W14 8NL,51.496479,-0.206705
"Piccadilly, St. James's, Mayfair, London, Greater London, England, W1J 7NH, United Kingdom",Mayfair,W1J 7NH,51.505568,-0.145006
"Knightsbridge, Hans Town, Brompton, Royal Borough of Kensington and Chelsea, London, Greater London, England, SW3 1ED, United Kingdom",Brompton,SW3 1ED,51.50147,-0.161113
"The Magdala, 2a, South Hill Park, Belsize Park, London Borough of Camden, London, Greater London, England, NW3 2SB, United Kingdom",Belsize Park,NW3 2SB,51.555339,-0.166005
"Boux Avenue, 494, Oxford Street, Mayfair, London, Greater London, England, W1C 2AU, United Kingdom",Mayfair,W1C 2AU,51.513765,-0.155639
"Bridgeman House, 1, Radnor Terrace, Kensington, Royal Borough of Kensington and Chelsea, London, Greater London, England, W14 8AZ, United Kingdom",Kensington,W14 8AZ,51.495584,-0.204878
"20a, Pembroke Square, Kensington, Royal Borough of Kensington and Chelsea, London, Greater London, England, W8 6PB, United Kingdom",Kensington,W8 6PB,51.496754,-0.19912
"Belsize Park, Haverstock Hill, Belsize Park, London Borough of Camden, London, Greater London, England, NW3 4QL, United Kingdom",Belsize Park,NW3 4QL,51.550193,-0.164245
"Ravenscourt Place, Hammersmith, London Borough of Hammersmith and Fulham, London, Greater London, England, W6 0UN, United Kingdom",Hammersmith,W6 0UN,51.493983,-0.236401
"Rosslyn Hill, Belsize Park, London Borough of Camden, London, Greater London, England, NW3 5UL, United Kingdom",Belsize Park,NW3 5UL,51.552796,-0.168229
"Bridgeman House, 1, Radnor Terrace, Kensington, Royal Borough of Kensington and Chelsea, London, Greater London, England, W14 8AZ, United Kingdom",Kensington,W14 8AZ,51.495933,-0.204653
"West Side Common, Wimbledon Village, London Borough of Merton, London, Greater London, England, SW19 4UG, United Kingdom",NA,SW19 4UG,51.424234,-0.227903
"Ravenscourt Road, Hammersmith, London Borough of Hammersmith and Fulham, London, Greater London, England, W6 0UH, United Kingdom",Hammersmith,W6 0UH,51.494158,-0.236376
"Lord Kensington House, 5, Radnor Terrace, Kensington, Royal Borough of Kensington and Chelsea, London, Greater London, England, W14 8AZ, United Kingdom",Kensington,W14 8AZ,51.495537,-0.205966
"Station Approach, Old Oak Common, London Borough of Hammersmith and Fulham, London, Greater London, England, NW10 4XA, United Kingdom",NA,NW10 4XA,51.532235,-0.245065
"Kensington High Street, Kensington, Royal Borough of Kensington and Chelsea, London, Greater London, England, W14 8NL, United Kingdom",Kensington,W14 8NL,51.495728,-0.206181
"Broadway Shopping Centre, Hammersmith Broadway, Hammersmith, London Borough of Hammersmith and Fulham, London, Greater London, England, W6 7AB, United Kingdom",Hammersmith,W6 7AB,51.49277,-0.224679
"Harrods, 87-135, Brompton Road, Knightsbridge, Royal Borough of Kensington and Chelsea, London, Greater London, England, SW1X 7XL, United Kingdom",Knightsbridge,SW1X 7XL,51.499029,-0.164076
"The Magdala, 2a, South Hill Park, Belsize Park, London Borough of Camden, London, Greater London, England, NW3 2SB, United Kingdom",Belsize Park,NW3 2SB,51.555301,-0.166193
"The Magdala, 2a, South Hill Park, Belsize Park, London Borough of Camden, London, Greater London, England, NW3 2SB, United Kingdom",Belsize Park,NW3 2SB,51.555313,-0.166095
"10, Gorleston Street, West Kensington, London Borough of Hammersmith and Fulham, London, Greater London, England, W14 8XS, United Kingdom",West Kensington,W14 8XS,51.494439,-0.20953
"11, Keats Grove, Belsize Park, London Borough of Camden, London, Greater London, England, NW3 2RP, United Kingdom",Belsize Park,NW3 2RP,51.555945,-0.166961
"Park Lodge, 282, Kensington High Street, Kensington, Royal Borough of Kensington and Chelsea, London, Greater London, England, W14 8NZ, United Kingdom",Kensington,W14 8NZ,51.498393,-0.20136
"Ravenscourt Place, Hammersmith, London Borough of Hammersmith and Fulham, London, Greater London, England, W6 0UN, United Kingdom",Hammersmith,W6 0UN,51.493997,-0.236451
"The Magdala, 2a, South Hill Park, Belsize Park, London Borough of Camden, London, Greater London, England, NW3 2SB, United Kingdom",Belsize Park,NW3 2SB,51.55538,-0.165988
"Denbigh Street, Pimlico, London, Greater London, England, SW1V 2ES, United Kingdom",Pimlico,SW1V 2ES,51.490719,-0.13956
"Duke of Wellington Place, Belgravia, London, Greater London, England, SW1X 7SH, United Kingdom",Belgravia,SW1X 7SH,51.502454,-0.150173
"Portcullis House, Canon Row, Westminster, Millbank, City of Westminster, Greater London, England, SW1A 2LW, United Kingdom",Millbank,SW1A 2LW,51.501377,-0.12437
"Kensington House Hotel, 15-16, Prince of Wales Terrace, South Kensington, Royal Borough of Kensington and Chelsea, London, Greater London, England, W8 5PQ, United Kingdom",South Kensington,W8 5PQ,51.501172,-0.185903
"Benson House, 4, Radnor Terrace, Kensington, Royal Borough of Kensington and Chelsea, London, Greater London, England, W14 8AZ, United Kingdom",Kensington,W14 8AZ,51.49558,-0.206289
"The Magdala, 2a, South Hill Park, Belsize Park, London Borough of Camden, London, Greater London, England, NW3 2SB, United Kingdom",Belsize Park,NW3 2SB,51.555355,-0.166093
"375 Kensington High Street, Kensington, Royal Borough of Kensington and Chelsea, London, Greater London, England, W14 8QA, United Kingdom",Kensington,W14 8QA,51.495893,-0.206534
"Kensington High Street, Kensington, Royal Borough of Kensington and Chelsea, London, Greater London, England, W14 8NL, United Kingdom",Kensington,W14 8NL,51.496303,-0.207463
"35, Philbeach Gardens, Earl's Court, Royal Borough of Kensington and Chelsea, London, Greater London, England, SW5 9EZ, United Kingdom",Earl's Court,SW5 9EZ,51.490509,-0.199492
"Ibberton House, 70, Russell Road, Kensington, Royal Borough of Kensington and Chelsea, London, Greater London, England, W14 8HU, United Kingdom",Kensington,W14 8HU,51.498047,-0.209498
"Ravenscourt Place, Hammersmith, London Borough of Hammersmith and Fulham, London, Greater London, England, W6 0UN, United Kingdom",Hammersmith,W6 0UN,51.494012,-0.236418
"Blackfriars Bridge, Blackfriars, City of London, Greater London, England, EC4Y 0DY, United Kingdom",NA,EC4Y 0DY,51.511501,-0.104152
"Harbet Road, Paddington, London, Greater London, England, W2 1JZ, United Kingdom",Paddington,W2 1JZ,51.519597,-0.172113
"15, Hofland Road, Brook Green, London Borough of Hammersmith and Fulham, London, Greater London, England, W14 0LN, United Kingdom",Brook Green,W14 0LN,51.49962,-0.214486
"McLaren London, 100, Knightsbridge, London, Greater London, England, SW1X 7LJ, United Kingdom",Knightsbridge,SW1X 7LJ,51.501777,-0.161125
"13, Hammersmith Road, West Kensington, London Borough of Hammersmith and Fulham, London, Greater London, England, W14 8XJ, United Kingdom",West Kensington,W14 8XJ,51.496054,-0.208691
"Wolfe House, 389, Kensington High Street, Kensington, Royal Borough of Kensington and Chelsea, London, Greater London, England, W14 8NL, United Kingdom",Kensington,W14 8NL,51.495808,-0.206588
"Kensington High Street, Kensington, Royal Borough of Kensington and Chelsea, London, Greater London, England, W14 8NL, United Kingdom",Kensington,W14 8NL,51.49578,-0.206251
"20a, Pembroke Square, Kensington, Royal Borough of Kensington and Chelsea, London, Greater London, England, W8 6PB, United Kingdom",Kensington,W8 6PB,51.496808,-0.199157
"Downshire Hill, Vale of Health, Belsize Park, London Borough of Camden, London, Greater London, England, NW3 1NX, United Kingdom",Belsize Park,NW3 1NX,51.557231,-0.168127
"67, Wood Lane, Shepherd's Bush, London Borough of Hammersmith and Fulham, London, Greater London, England, W12 7DR, United Kingdom",Shepherd's Bush,W12 7DR,51.507814,-0.224655
"72, Randolph Avenue, St. John's Wood, London, Greater London, England, W9 1BE, United Kingdom",St. John's Wood,W9 1BE,51.52647,-0.181704
"1, Bessborough Gardens, Millbank, London, Greater London, England, SW1V 2JQ, United Kingdom",Millbank,SW1V 2JQ,51.488994,-0.129861
"Royal Garden Hotel, 2-24, Kensington High Street, South Kensington, Royal Borough of Kensington and Chelsea, London, Greater London, England, W8 4PT, United Kingdom",South Kensington,W8 4PT,51.502473,-0.187758
"Kenton Court, 356, Kensington High Street, Kensington, Royal Borough of Kensington and Chelsea, London, Greater London, England, W14 8NW, United Kingdom",Kensington,W14 8NW,51.496716,-0.205516
"Kensington High Street, Kensington, Royal Borough of Kensington and Chelsea, London, Greater London, England, W8 6NA, United Kingdom",Kensington,W8 6NA,51.498859,-0.199698
"VauxWall East Climbing Centre, 1, Lollard Street, Ethelred Estate, Lambeth, London Borough of Lambeth, London, Greater London, England, SE11 6BD, United Kingdom",Lambeth,SE11 6BD,51.492283,-0.113626
"49, Avonmore Road, West Kensington, London Borough of Hammersmith and Fulham, London, Greater London, England, W14 8RU, United Kingdom",West Kensington,W14 8RU,51.494337,-0.205887
"211, Randolph Avenue, Maida Vale, London, Greater London, England, W9 1PE, United Kingdom",Maida Vale,W9 1PE,51.531824,-0.188392
"41-44, Great Windmill Street, Soho, City of Westminster, Greater London, England, W1D 7LU, United Kingdom",NA,W1D 7LU,51.510996,-0.134164
"Morpeth Arms, 58, Millbank, London, Greater London, England, SW1P 4RW, United Kingdom",Millbank,SW1P 4RW,51.489183,-0.128854
"Station Approach, Sudbury, London Borough of Brent, London, Greater London, England, HA0 2LA, United Kingdom",Sudbury,HA0 2LA,51.55119,-0.315406
"Giacobazzi's, 150, Fleet Road, Maitland Park, Belsize Park, London Borough of Camden, London, Greater London, England, NW3 2QX, United Kingdom",Belsize Park,NW3 2QX,51.553764,-0.163565
"Meta, 10, Brock Street, Fitzrovia, London Borough of Camden, London, Greater London, England, NW1 3FG, United Kingdom",Fitzrovia,NW1 3FG,51.525756,-0.139467
"Benson House, 4, Radnor Terrace, Kensington, Royal Borough of Kensington and Chelsea, London, Greater London, England, W14 8AZ, United Kingdom",Kensington,W14 8AZ,51.495593,-0.2063
"Kensington High Street, Kensington, Royal Borough of Kensington and Chelsea, London, Greater London, England, W14 8NS, United Kingdom",Kensington,W14 8NS,51.496987,-0.20462
"Ludwell House, 63, Russell Road, Kensington, Royal Borough of Kensington and Chelsea, London, Greater London, England, W14 8HU, United Kingdom",Kensington,W14 8HU,51.499364,-0.210959
"Constantine Road, Maitland Park, Gospel Oak, London Borough of Camden, London, Greater London, England, NW3 2LX, United Kingdom",Gospel Oak,NW3 2LX,51.554833,-0.162521
"62-70, Kensington High Street, South Kensington, Royal Borough of Kensington and Chelsea, London, Greater London, England, W8 4PE, United Kingdom",South Kensington,W8 4PE,51.502091,-0.190363
"Eastbound Platform 3, Farmer Street, Notting Hill, Royal Borough of Kensington and Chelsea, London, Greater London, England, W11 3JZ, United Kingdom",Notting Hill,W11 3JZ,51.50917,-0.196452
"Lyndhurst House Preparatory School, 24, Lyndhurst Gardens, Swiss Cottage, Belsize Park, London Borough of Camden, London, Greater London, England, NW3 5NW, United Kingdom",Belsize Park,NW3 5NW,51.552512,-0.171927
"Uxbridge Road, Shepherd's Bush, London Borough of Hammersmith and Fulham, London, Greater London, England, W12 8ND, United Kingdom",Shepherd's Bush,W12 8ND,51.504812,-0.217732
"Kensington Church Walk, Kensington, Royal Borough of Kensington and Chelsea, London, Greater London, England, W8 5SQ, United Kingdom",Kensington,W8 5SQ,51.501402,-0.191598
"Warwick Road, Kensington, Royal Borough of Kensington and Chelsea, London, Greater London, England, W14 8QZ, United Kingdom",Kensington,W14 8QZ,51.49656,-0.205181
"Trinity House, 377, Kensington High Street, Kensington, Royal Borough of Kensington and Chelsea, London, Greater London, England, W14 8QA, United Kingdom",Kensington,W14 8QA,51.496374,-0.205712
"BARNES, 113-115, Old Brompton Road, The Boltons, Brompton, Royal Borough of Kensington and Chelsea, London, Greater London, England, SW7 3LE, United Kingdom",Brompton,SW7 3LE,51.492109,-0.178329
"Westbound Platform 4, Pembridge Gardens, Notting Hill, Royal Borough of Kensington and Chelsea, London, Greater London, England, W2 4EA, United Kingdom",Notting Hill,W2 4EA,51.509094,-0.196243
"Derry and Toms Building, Kensington High Street, Kensington, Royal Borough of Kensington and Chelsea, London, Greater London, England, W8 4SH, United Kingdom",Kensington,W8 4SH,51.501352,-0.192159
"J.H. Kenyon, 9, Pond Street, Belsize Park, London Borough of Camden, London, Greater London, England, NW3 2PN, United Kingdom",Belsize Park,NW3 2PN,51.553627,-0.167791
"M.E.I.C House, 344, Kensington High Street, Kensington, Royal Borough of Kensington and Chelsea, London, Greater London, England, W14 8NS, United Kingdom",Kensington,W14 8NS,51.497185,-0.204794
"Scotch House, Knightsbridge, Hans Town, Brompton, Royal Borough of Kensington and Chelsea, City of Westminster, Greater London, England, SW3 1ED, United Kingdom",Brompton,SW3 1ED,51.501832,-0.160385
"1, Bessborough Gardens, Millbank, London, Greater London, England, SW1V 2JQ, United Kingdom",Millbank,SW1V 2JQ,51.488839,-0.129554
"Malet Street, Bloomsbury, London Borough of Camden, London, Greater London, England, WC1E 7JN, United Kingdom",Bloomsbury,WC1E 7JN,51.522712,-0.131723
"Eco, 2, Holland Road, Kensington, Royal Borough of Kensington and Chelsea, London, Greater London, England, W14 8BA, United Kingdom",Kensington,W14 8BA,51.4969,-0.206244
"Warwick Gardens, Kensington, Royal Borough of Kensington and Chelsea, London, Greater London, England, W14 8RA, United Kingdom",Kensington,W14 8RA,51.496974,-0.204548
"Downshire Hill, Vale of Health, Belsize Park, London Borough of Camden, London, Greater London, England, NW3 1NX, United Kingdom",Belsize Park,NW3 1NX,51.557296,-0.167957
"Kensington High Street, Kensington, Royal Borough of Kensington and Chelsea, London, Greater London, England, W14 8NS, United Kingdom",Kensington,W14 8NS,51.49696,-0.20491
"Grosvenor Road, Millbank, London, Greater London, England, SW1V 3SN, United Kingdom",Millbank,SW1V 3SN,51.487943,-0.130258
"Kahn Automobiles, 377, Kensington High Street, Kensington, Royal Borough of Kensington and Chelsea, London, Greater London, England, W14 8QA, United Kingdom",Kensington,W14 8QA,51.496659,-0.20591
"Alexandra Road, Swiss Cottage, South Hampstead, London Borough of Camden, London, Greater London, England, NW8 0SB, United Kingdom",South Hampstead,NW8 0SB,51.540764,-0.178539
"North Wharf Road, Paddington, London, Greater London, England, W2 1NZ, United Kingdom",Paddington,W2 1NZ,51.519391,-0.173084
"Kensington High Street, Kensington, Royal Borough of Kensington and Chelsea, London, Greater London, England, W14 8NL, United Kingdom",Kensington,W14 8NL,51.496256,-0.20745
"The Magdala, 2a, South Hill Park, Belsize Park, London Borough of Camden, London, Greater London, England, NW3 2SB, United Kingdom",Belsize Park,NW3 2SB,51.555446,-0.166068
"SW1V 19;SW1V 119, Cumberland Street, Pimlico, London, Greater London, England, SW1V 4LR, United Kingdom",Pimlico,SW1V 4LR,51.489696,-0.145985
"Warwick Gardens, Kensington, Royal Borough of Kensington and Chelsea, London, Greater London, England, W14 8RA, United Kingdom",Kensington,W14 8RA,51.496713,-0.204398
"Hampstead Heath, South Hill Park, Belsize Park, London Borough of Camden, London, Greater London, England, NW3 2SB, United Kingdom",Belsize Park,NW3 2SB,51.55535,-0.166154
"Belsize Park, Haverstock Hill, Belsize Park, London Borough of Camden, London, Greater London, England, NW3 4QL, United Kingdom",Belsize Park,NW3 4QL,51.55044,-0.164632
"Kensington High Street, Kensington, Royal Borough of Kensington and Chelsea, London, Greater London, England, W14 8NS, United Kingdom",Kensington,W14 8NS,51.497076,-0.204594
"Kensington High Street, Kensington, Royal Borough of Kensington and Chelsea, London, Greater London, England, W14 8NL, United Kingdom",Kensington,W14 8NL,51.495933,-0.206328
"Jeroboams, 254, Kensington High Street, Kensington, Royal Borough of Kensington and Chelsea, London, Greater London, England, W8 6DN, United Kingdom",Kensington,W8 6DN,51.498695,-0.200098
"Perkins, 171, Haverstock Hill, Belsize Park, London Borough of Camden, London, Greater London, England, NW3 4QT, United Kingdom",Belsize Park,NW3 4QT,51.550165,-0.164433
"Royal Free Hospital, Pond Street, Belsize Park, London Borough of Camden, London, Greater London, England, NW3 2QG, United Kingdom",Belsize Park,NW3 2QG,51.552718,-0.166091
"South End Road, Belsize Park, London Borough of Camden, London, Greater London, England, NW3 2QE, United Kingdom",Belsize Park,NW3 2QE,51.554391,-0.165469
"3, Russell Road, Kensington, Royal Borough of Kensington and Chelsea, London, Greater London, England, W14 8HU, United Kingdom",Kensington,W14 8HU,51.496983,-0.207632
"Blades Hotel, 122, Belgrave Road, Pimlico, London, Greater London, England, SW1V 2BL, United Kingdom",Pimlico,SW1V 2BL,51.489703,-0.136743
"Holland Gardens, Kensington, Royal Borough of Kensington and Chelsea, London, Greater London, England, W14 8HT, United Kingdom",Kensington,W14 8HT,51.498957,-0.21007
"Beeston Place, Victoria, London, Greater London, England, SW1W 0JJ, United Kingdom",Victoria,SW1W 0JJ,51.498089,-0.145672
"Kensington High Street, Kensington, Royal Borough of Kensington and Chelsea, London, Greater London, England, W14 8NL, United Kingdom",Kensington,W14 8NL,51.495936,-0.205966
"60, Holland Park Road, Kensington, Royal Borough of Kensington and Chelsea, London, Greater London, England, W14 8NA, United Kingdom",Kensington,W14 8NA,51.497727,-0.204838
"Mimmo La Bufala, 45a, South End Road, Vale of Health, Belsize Park, London Borough of Camden, London, Greater London, England, NW3 2QB, United Kingdom",Belsize Park,NW3 2QB,51.555336,-0.166359
"Penn Court, 12-14, North End Road, West Kensington, London Borough of Hammersmith and Fulham, London, Greater London, England, W14 0SH, United Kingdom",West Kensington,W14 0SH,51.49463,-0.210831
"Kensington High Street, Kensington, Royal Borough of Kensington and Chelsea, London, Greater London, England, W14 8NL, United Kingdom",Kensington,W14 8NL,51.49577,-0.206293
"Russell Road, Kensington, Royal Borough of Kensington and Chelsea, London, Greater London, England, W14 8HU, United Kingdom",Kensington,W14 8HU,51.49629,-0.207132
"M&S Foodhall, 10, Pond Street, Belsize Park, London Borough of Camden, London, Greater London, England, NW3 2PS, United Kingdom",Belsize Park,NW3 2PS,51.554125,-0.165276
"Lord Kensington House, 5, Radnor Terrace, Kensington, Royal Borough of Kensington and Chelsea, London, Greater London, England, W14 8AZ, United Kingdom",Kensington,W14 8AZ,51.495664,-0.206161
"Cureton Street, Millbank Estate, Millbank, London, Greater London, England, SW1P 4EH, United Kingdom",Millbank,SW1P 4EH,51.490424,-0.129962
"The Hand and Flower, 1, Hammersmith Road, West Kensington, London Borough of Hammersmith and Fulham, London, Greater London, England, W14 8XJ, United Kingdom",West Kensington,W14 8XJ,51.496095,-0.208182
"Holland Park, Holland Park Avenue, Notting Hill, Royal Borough of Kensington and Chelsea, London, Greater London, England, W11 3RB, United Kingdom",Notting Hill,W11 3RB,51.507073,-0.206115
"55, Millbank, London, Greater London, England, SW8 2LQ, United Kingdom",Millbank,SW8 2LQ,51.489454,-0.128168
"3, Rutland Gate, Knightsbridge, London, Greater London, England, SW7 1BL, United Kingdom",Knightsbridge,SW7 1BL,51.501644,-0.168021
"Hammersmith Road, West Kensington, London Borough of Hammersmith and Fulham, London, Greater London, England, W14 8XJ, United Kingdom",West Kensington,W14 8XJ,51.496188,-0.207889
"Leicester Court, Chinatown, City of Westminster, Greater London, England, WC2H 7AR, United Kingdom",Chinatown,WC2H 7AR,51.511572,-0.129373
"Giacobazzi's, 150, Fleet Road, Maitland Park, Belsize Park, London Borough of Camden, London, Greater London, England, NW3 2QX, United Kingdom",Belsize Park,NW3 2QX,51.553957,-0.164304
"16, Lisgar Terrace, West Kensington, London Borough of Hammersmith and Fulham, London, Greater London, England, W14 8SJ, United Kingdom",West Kensington,W14 8SJ,51.493953,-0.207654
"Ravenscourt Road, Hammersmith, London Borough of Hammersmith and Fulham, London, Greater London, England, W6 0UH, United Kingdom",Hammersmith,W6 0UH,51.49425,-0.236442
"Lord Kensington House, 5, Radnor Terrace, Kensington, Royal Borough of Kensington and Chelsea, London, Greater London, England, W14 8AZ, United Kingdom",Kensington,W14 8AZ,51.495767,-0.206005
"375 Kensington High Street, Kensington, Royal Borough of Kensington and Chelsea, London, Greater London, England, W14 8QA, United Kingdom",Kensington,W14 8QA,51.495947,-0.206573
"Hammersmith Road, West Kensington, London Borough of Hammersmith and Fulham, London, Greater London, England, W14 8XJ, United Kingdom",West Kensington,W14 8XJ,51.495977,-0.207648
"29, Kensington Place, Notting Hill, Royal Borough of Kensington and Chelsea, London, Greater London, England, W8 7PT, United Kingdom",Notting Hill,W8 7PT,51.507386,-0.197679
"Shepherds Bush Green, Shepherd's Bush, London Borough of Hammersmith and Fulham, London, Greater London, England, W12 8ND, United Kingdom",Shepherd's Bush,W12 8ND,51.504139,-0.217667
"The Magdala, 2a, South Hill Park, Belsize Park, London Borough of Camden, London, Greater London, England, NW3 2SB, United Kingdom",Belsize Park,NW3 2SB,51.555322,-0.166061
"Bridgeman House, 1, Radnor Terrace, Kensington, Royal Borough of Kensington and Chelsea, London, Greater London, England, W14 8AZ, United Kingdom",Kensington,W14 8AZ,51.495772,-0.204849
"Lollard Street, Ethelred Estate, Lambeth, London Borough of Lambeth, London, Greater London, England, SE11 6BD, United Kingdom",Lambeth,SE11 6BD,51.492914,-0.115059
"Hampstead Green, Belsize Park, London Borough of Camden, London, Greater London, England, NW3 2PN, United Kingdom",Belsize Park,NW3 2PN,51.553768,-0.165969
"Bessborough Gardens, Millbank, London, Greater London, England, SW1V 2JQ, United Kingdom",Millbank,SW1V 2JQ,51.488745,-0.129898
"1, Russell Road, Kensington, Royal Borough of Kensington and Chelsea, London, Greater London, England, W14 8HU, United Kingdom",Kensington,W14 8HU,51.496703,-0.207381
"Hammersmith Road, West Kensington, London Borough of Hammersmith and Fulham, London, Greater London, England, W14 8XJ, United Kingdom",West Kensington,W14 8XJ,51.496133,-0.208093
"Douglas Houghton House, 223, Vauxhall Bridge Road, Victoria, London, Greater London, England, SW1V 1EL, United Kingdom",Victoria,SW1V 1EL,51.493873,-0.140481
"Richmond Way, Shepherd's Bush, London Borough of Hammersmith and Fulham, London, Greater London, England, W12 8LY, United Kingdom",Shepherd's Bush,W12 8LY,51.504194,-0.217478
"Wolfe House, 389, Kensington High Street, Kensington, Royal Borough of Kensington and Chelsea, London, Greater London, England, W14 8NL, United Kingdom",Kensington,W14 8NL,51.495798,-0.206609
"Fraser Residence Prince of Wales Terrace, 2-14, Prince of Wales Terrace, South Kensington, Royal Borough of Kensington and Chelsea, London, Greater London, England, W8 5PQ, United Kingdom",South Kensington,W8 5PQ,51.501912,-0.185868
"The Magdala, 2a, South Hill Park, Belsize Park, London Borough of Camden, London, Greater London, England, NW3 2SB, United Kingdom",Belsize Park,NW3 2SB,51.555319,-0.165898
"13, Hammersmith Road, West Kensington, London Borough of Hammersmith and Fulham, London, Greater London, England, W14 8XJ, United Kingdom",West Kensington,W14 8XJ,51.495902,-0.20869
"26, Ilchester Place, Kensington, Royal Borough of Kensington and Chelsea, London, Greater London, England, W14 8LT, United Kingdom",Kensington,W14 8LT,51.500421,-0.202538
"Kensington High Street/Kensington Church St., Kensington High Street, Kensington, Royal Borough of Kensington and Chelsea, London, Greater London, England, W8 5SE, United Kingdom",Kensington,W8 5SE,51.502081,-0.191153
"Uxbridge Road, Shepherd's Bush, London Borough of Hammersmith and Fulham, London, Greater London, England, W12 8ND, United Kingdom",Shepherd's Bush,W12 8ND,51.504505,-0.218231
"The Panoramic, 152, Grosvenor Road, Millbank, London, Greater London, England, SW1V 3JL, United Kingdom",Millbank,SW1V 3JL,51.488387,-0.129615
"Ravenscourt Road, Hammersmith, London Borough of Hammersmith and Fulham, London, Greater London, England, W6 0UH, United Kingdom",Hammersmith,W6 0UH,51.494368,-0.2367
"Kensington High Street, Kensington, Royal Borough of Kensington and Chelsea, London, Greater London, England, W14 8NS, United Kingdom",Kensington,W14 8NS,51.497026,-0.204843
"Newman & Son, 4, Constantine Road, Maitland Park, Belsize Park, London Borough of Camden, London, Greater London, England, NW3 2NG, United Kingdom",Belsize Park,NW3 2NG,51.554178,-0.164745
"Old Court House, 24, Old Court Place, Kensington, Royal Borough of Kensington and Chelsea, London, Greater London, England, W8 4PL, United Kingdom",Kensington,W8 4PL,51.502232,-0.190357
"Belsize Park, Haverstock Hill, Belsize Park, London Borough of Camden, London, Greater London, England, NW3 4QL, United Kingdom",Belsize Park,NW3 4QL,51.55021,-0.164579
"Regent's Park Barracks, Park Village Mews, Chalk Farm, London Borough of Camden, London, Greater London, England, NW1 4AP, United Kingdom",Chalk Farm,NW1 4AP,51.533064,-0.145774
"26, Kensington Church Street, Kensington, Royal Borough of Kensington and Chelsea, London, Greater London, England, W8 4EP, United Kingdom",Kensington,W8 4EP,51.502727,-0.191283
"Torrington Place, Bloomsbury, London Borough of Camden, London, Greater London, England, WC1E 7HY, United Kingdom",Bloomsbury,WC1E 7HY,51.522962,-0.131224
"High Holborn, Seven Dials, Bloomsbury, London Borough of Camden, London, Greater London, England, WC1V 6PJ, United Kingdom",Bloomsbury,WC1V 6PJ,51.516243,-0.124551
"Oracare Dental, 244, Kensington High Street, Kensington, Royal Borough of Kensington and Chelsea, London, Greater London, England, W8 6DN, United Kingdom",Kensington,W8 6DN,51.498908,-0.199829
"Sainsbury's Local, 3, North End Crescent, West Kensington, London Borough of Hammersmith and Fulham, London, Greater London, England, W14 8TQ, United Kingdom",West Kensington,W14 8TQ,51.492107,-0.20719
"Hornton Street, Kensington, Royal Borough of Kensington and Chelsea, London, Greater London, England, W8 7RW, United Kingdom",Kensington,W8 7RW,51.50135,-0.193678
"Wolfe House, 389, Kensington High Street, Kensington, Royal Borough of Kensington and Chelsea, London, Greater London, England, W14 8NL, United Kingdom",Kensington,W14 8NL,51.496087,-0.20717
"1, Ravenscourt Place, Hammersmith, London Borough of Hammersmith and Fulham, London, Greater London, England, W6 0UN, United Kingdom",Hammersmith,W6 0UN,51.493973,-0.236465
"Wood Lane, Shepherd's Bush, London Borough of Hammersmith and Fulham, London, Greater London, England, W12 7FB, United Kingdom",Shepherd's Bush,W12 7FB,51.508468,-0.224604
"375 Kensington High Street, Kensington, Royal Borough of Kensington and Chelsea, London, Greater London, England, W14 8QA, United Kingdom",Kensington,W14 8QA,51.495719,-0.206362
